$GPGGA,140151.00,4530.203085,N,00913.478551,E,1,12,1.5,145.8,M,48.1,M,,*61
$GPGGA,140152.00,4530.203017,N,00913.478702,E,1,09,1.4,145.7,M,48.1,M,,*69
$GPGGA,140153.00,4530.203005,N,00913.478682,E,1,12,1.4,145.4,M,48.1,M,,*6B
$GPGGA,140154.00,4530.202796,N,00913.478533,E,1,12,1.4,145.1,M,48.1,M,,*6C
$GPGGA,140155.00,4530.202577,N,00913.478431,E,1,14,1.3,144.8,M,48.1,M,,*6A
$GPGGA,140156.00,4530.202371,N,00913.478344,E,1,13,1.3,144.5,M,48.1,M,,*66
$GPGGA,140157.00,4530.202286,N,00913.477974,E,1,14,1.2,144.4,M,48.1,M,,*6F
$GPGGA,140158.00,4530.202137,N,00913.477791,E,1,14,1.2,144.2,M,48.1,M,,*6A
$GPGGA,140159.00,4530.201613,N,00913.478069,E,1,14,1.2,143.6,M,48.1,M,,*65
$GPGGA,140200.00,4530.201240,N,00913.478031,E,1,14,1.2,143.2,M,48.1,M,,*61
$GPGGA,140201.00,4530.200981,N,00913.477830,E,1,13,1.1,143.0,M,48.1,M,,*67
$GPGGA,140202.00,4530.200752,N,00913.477766,E,1,12,1.1,142.9,M,48.1,M,,*61
$GPGGA,140203.00,4530.200359,N,00913.477624,E,1,14,1.1,142.3,M,48.1,M,,*64
$GPGGA,140204.00,4530.200620,N,00913.477750,E,1,15,1.1,142.0,M,48.1,M,,*68
$GPGGA,140205.00,4530.200353,N,00913.477737,E,1,13,1.1,141.0,M,48.1,M,,*6C
$GPGGA,140206.00,4530.200158,N,00913.477696,E,1,13,1.1,140.6,M,48.1,M,,*6B
$GPGGA,140207.00,4530.200245,N,00913.477475,E,1,13,1.1,140.6,M,48.1,M,,*6A
$GPGGA,140208.00,4530.200531,N,00913.477218,E,1,14,1.1,140.8,M,48.1,M,,*65
$GPGGA,140209.00,4530.200536,N,00913.477107,E,1,13,1.1,140.9,M,48.1,M,,*68
$GPGGA,140210.00,4530.200510,N,00913.476775,E,1,14,1.1,141.3,M,48.1,M,,*6A
$GPGGA,140211.00,4530.200670,N,00913.476738,E,1,13,1.1,141.7,M,48.1,M,,*64
$GPGGA,140212.00,4530.200548,N,00913.476885,E,1,11,1.1,141.7,M,48.1,M,,*64
$GPGGA,140213.00,4530.200401,N,00913.477003,E,1,11,1.1,141.5,M,48.1,M,,*6C
$GPGGA,140214.00,4530.200261,N,00913.476768,E,1,11,1.1,141.6,M,48.1,M,,*63
$GPGGA,140215.00,4530.200145,N,00913.476554,E,1,10,1.1,141.7,M,48.1,M,,*6A
$GPGGA,140216.00,4530.200098,N,00913.476315,E,1,10,1.1,141.5,M,48.1,M,,*69
$GPGGA,140217.00,4530.200042,N,00913.476026,E,1,09,1.1,141.3,M,48.1,M,,*62
$GPGGA,140218.00,4530.199986,N,00913.475645,E,1,10,1.1,141.4,M,48.1,M,,*60
$GPGGA,140219.00,4530.199742,N,00913.475265,E,1,10,1.1,141.5,M,48.1,M,,*60
$GPGGA,140220.00,4530.199798,N,00913.474827,E,1,11,1.1,141.7,M,48.1,M,,*63
$GPGGA,140221.00,4530.199945,N,00913.474461,E,1,11,1.1,142.1,M,48.1,M,,*67
$GPGGA,140222.00,4530.200081,N,00913.473642,E,1,11,1.1,142.5,M,48.1,M,,*66
$GPGGA,140223.00,4530.199903,N,00913.473359,E,1,13,1.1,142.5,M,48.1,M,,*6A
$GPGGA,140224.00,4530.199819,N,00913.473492,E,1,12,1.1,142.7,M,48.1,M,,*64
$GPGGA,140225.00,4530.200040,N,00913.473750,E,1,11,1.0,142.4,M,48.1,M,,*6E
$GPGGA,140226.00,4530.200128,N,00913.474292,E,1,11,1.0,142.1,M,48.1,M,,*6B
$GPGGA,140227.00,4530.200092,N,00913.474825,E,1,11,1.0,141.8,M,48.1,M,,*66
$GPGGA,140228.00,4530.200166,N,00913.475142,E,1,10,1.0,141.6,M,48.1,M,,*65
$GPGGA,140229.00,4530.200191,N,00913.475717,E,1,11,1.0,141.4,M,48.1,M,,*69
$GPGGA,140230.00,4530.200252,N,00913.476347,E,1,10,1.1,141.3,M,48.1,M,,*68
$GPGGA,140231.00,4530.200305,N,00913.476820,E,1,10,1.1,141.1,M,48.1,M,,*62
$GPGGA,140232.00,4530.200419,N,00913.477320,E,1,09,1.1,140.9,M,48.1,M,,*60
$GPGGA,140233.00,4530.200255,N,00913.477502,E,1,12,1.1,141.0,M,48.1,M,,*6B
$GPGGA,140234.00,4530.200128,N,00913.477756,E,1,12,1.1,141.4,M,48.1,M,,*62
$GPGGA,140235.00,4530.199979,N,00913.478019,E,1,11,1.1,141.7,M,48.1,M,,*6F
$GPGGA,140236.00,4530.199889,N,00913.477950,E,1,10,1.1,141.7,M,48.1,M,,*68
$GPGGA,140237.00,4530.199845,N,00913.477970,E,1,10,1.1,141.4,M,48.1,M,,*68
$GPGGA,140238.00,4530.199621,N,00913.478082,E,1,11,1.1,141.2,M,48.1,M,,*67
$GPGGA,140239.00,4530.199622,N,00913.477834,E,1,11,1.1,141.4,M,48.1,M,,*69
$GPGGA,140240.00,4530.199624,N,00913.477615,E,1,11,1.1,141.4,M,48.1,M,,*6C
$GPGGA,140241.00,4530.199501,N,00913.477540,E,1,10,1.1,141.3,M,48.1,M,,*6C
$GPGGA,140242.00,4530.199236,N,00913.477342,E,1,10,1.1,141.2,M,48.1,M,,*69
$GPGGA,140243.00,4530.199128,N,00913.477429,E,1,11,1.1,141.0,M,48.1,M,,*6D
$GPGGA,140244.00,4530.199047,N,00913.477971,E,1,11,1.1,140.6,M,48.1,M,,*65
$GPGGA,140245.00,4530.198932,N,00913.478213,E,1,11,1.0,140.6,M,48.1,M,,*6F
$GPGGA,140246.00,4530.198893,N,00913.477810,E,1,11,1.0,141.0,M,48.1,M,,*67
$GPGGA,140247.00,4530.198848,N,00913.477933,E,1,10,1.1,140.9,M,48.1,M,,*68
$GPGGA,140248.00,4530.198986,N,00913.478290,E,1,13,1.1,141.5,M,48.1,M,,*67
$GPGGA,140249.00,4530.198775,N,00913.478151,E,1,10,1.1,141.5,M,48.1,M,,*69
$GPGGA,140250.00,4530.198498,N,00913.477950,E,1,11,1.1,141.6,M,48.1,M,,*65
$GPGGA,140251.00,4530.198289,N,00913.477543,E,1,11,1.1,141.7,M,48.1,M,,*6D
$GPGGA,140252.00,4530.198530,N,00913.477206,E,1,11,1.1,142.0,M,48.1,M,,*69
$GPGGA,140253.00,4530.198553,N,00913.476736,E,1,11,1.1,142.1,M,48.1,M,,*6B
$GPGGA,140254.00,4530.198364,N,00913.476369,E,1,12,1.1,142.1,M,48.1,M,,*63
$GPGGA,140255.00,4530.198147,N,00913.476262,E,1,11,1.1,141.9,M,48.1,M,,*63
$GPGGA,140256.00,4530.198166,N,00913.476365,E,1,09,1.1,141.8,M,48.1,M,,*6D
$GPGGA,140257.00,4530.198437,N,00913.476440,E,1,10,1.1,142.0,M,48.1,M,,*6E
$GPGGA,140258.00,4530.198925,N,00913.475594,E,1,11,1.1,142.7,M,48.1,M,,*62
$GPGGA,140259.00,4530.198962,N,00913.474705,E,1,11,1.1,143.2,M,48.1,M,,*6F
$GPGGA,140300.00,4530.199078,N,00913.474018,E,1,13,1.1,143.4,M,48.1,M,,*6E
$GPGGA,140301.00,4530.199007,N,00913.473730,E,1,10,1.0,143.7,M,48.1,M,,*6C
$GPGGA,140302.00,4530.199132,N,00913.473418,E,1,11,1.0,143.9,M,48.1,M,,*6E
$GPGGA,140303.00,4530.199238,N,00913.473292,E,1,11,1.0,144.2,M,48.1,M,,*6E
$GPGGA,140304.00,4530.199430,N,00913.473196,E,1,11,1.0,144.5,M,48.1,M,,*67
$GPGGA,140305.00,4530.199424,N,00913.472998,E,1,12,1.0,144.5,M,48.1,M,,*67
$GPGGA,140306.00,4530.199267,N,00913.473244,E,1,11,1.0,144.5,M,48.1,M,,*6D
