PER filtrare solo GGA: ^((?!\$GPGGA).)*\n
$GPGGA,140151.00,4530.203085,N,00913.478551,E,1,12,1.5,145.8,M,48.1,M,,*61
$PGLOR,1,UNC,140151.00,0.046,14.5,13.4,20.00,180.00,20.4,7.7,90.3*1E
$PGLOR,2,SAT,7,1,B24,11,20,G29,15,20,B44,16,33,E24,31,23,G25,20,2F,R16,39,2F*20
$PGLOR,2,SAT,7,2,R17,19,27,R18,15,20,G28,38,2F,B12,,20,R15,09,20,E31,18,20*53
$PGLOR,2,SAT,7,3,E12,,20,E33,22,23,B26,,20,G31,38,2F,B25,38,2F,G12,09,20*3D
$PGLOR,2,SAT,7,4,B34,21,23,E10,08,20,G11,14,20,B08,17,27,E05,11,20,E25,38,2F*4E
$PGLOR,2,SAT,7,5,B38,,30,R19,,20,E03,32,2F,G32,16,23,G18,13,21,R07,35,23*4C
$PGLOR,2,SAT,7,6,G26,35,2F,G20,09,20,R09,28,2F,R24,19,2F,E26,11,20,B11,13,20*40
$PGLOR,2,SAT,7,7,E11,10,20,R14,12,20,R08,19,20,R06,,20,B10,,20*49
$PGLOR,2,SVC,GPS,0,3,1,10,025,CLIN,CLIN,028,CLIN,CLIN,029,SKUS,SKUS,031,SKUS,SKUS*6D
$PGLOR,2,SVC,GPS,0,3,2,10,011,CLIN,CLIN,012,CLIN,CLIN,018,SKPR,SKPR,032,SKPR,SKPR*61
$PGLOR,2,SVC,GPS,0,3,3,10,020,SKUS,SKUS,026,CLIN,CLIN*6D
$PGLOR,2,SVC,GLO,0,3,1,11,056,SKUS,SKUS,058,SKUS,SKPR,059,CLIN,CLIN,063,CLIN,CLIN*6B
$PGLOR,2,SVC,GLO,0,3,2,11,057,CLIN,CLIN,061,SKPR,SKPR,062,SKUS,SKPR,064,CLIN,CLIN*6C
$PGLOR,2,SVC,GLO,0,3,3,11,052,CLIN,CLIN,055,CLIN,CLIN,065,CLIN,CLIN*72
$PGLOR,2,SVC,BDS,0,3,1,10,087,CLIN,CLIN,099,SKPR,SKPR,101,CLIN,CLIN,119,CLIN,CLIN*7E
$PGLOR,2,SVC,BDS,0,3,2,10,083,SKUS,SKUS,100,SKPR,SKPR,109,SKUS,SKUS,113,CLIN,CLIN*7A
$PGLOR,2,SVC,BDS,0,3,3,10,085,CLIN,CLIN,086,CLIN,CLIN*79
$PGLOR,2,SVC,GAL,0,3,1,10,150,SKPR,SKPR,162,CLIN,CLIN,169,CLIN,CLIN,171,SKPR,SKPR*6F
$PGLOR,2,SVC,GAL,0,3,2,10,141,CLIN,CLIN,143,CLIN,CLIN,148,SKUS,SKUS,163,SKUS,SKUS*6F
$PGLOR,2,SVC,GAL,0,3,3,10,149,CLIN,CLIN,164,CLIN,CLIN*6A
$PGLOR,2,SIO,TxERR,0,RxERR,0,TxCNT,947,RxCNT,15360,MLFRMPKT,0,DTMS,1004,DTIN,30,56,DTOUT,18,949,HATMD,131*15
$PGLOR,2,HLA,140151.00,L,,Al,,A,,H,,,M,0,Ac,0,Gr,0,S,,,Sx,,,T,0,Tr,,Mn,,Ap,,Ta,0,,,Aa,1,Ga,1,*1A
$PGLOR,3,CTX,140151.00,E,3,1,,,V,1,0,S,,,*7B
$PGLOR,1,LSQ,140151.00,,,,,,,,,,,,,,,,00,,*3B
$PGLOR,0,PPS,020224,140151.000,010181,215834.989,000.100,1,0,1,*18
$PGLOR,3,AGC,G,31.9,R,47.6,B,46.8,E5A,,AL1,21.6,AL5,,LTE,,PM1,,PM5,*0A
$PSSGR,GSA,A,3,25,26,28,31,,,,,,,,,2.4,1.9,1.4,1,1*4C
$PSSGR,GSA,A,3,,,,,,,,,,,,,2.4,1.9,1.4,1,8*4E
$PSSGR,GSA,A,3,,,,,,,,,,,,,2.4,1.9,1.4,1,9*4F
$PSSGR,GSA,A,3,73,80,81,88,,,,,,,,,2.4,1.9,1.4,2,1*41
$PSSGR,GSA,A,3,,,,,,,,,,,,,2.4,1.9,1.4,5,1*43
$PSSGR,GSA,A,3,,,,,,,,,,,,,2.4,1.9,1.4,5,8*4A
$PSSGR,GSA,A,3,,,,,,,,,,,,,2.4,1.9,1.4,5,9*4B
$PSSGR,GSA,A,3,208,225,,,,,,,,,,,2.4,1.9,1.4,4,1*4D
$PSSGR,GSA,A,3,,,,,,,,,,,,,2.4,1.9,1.4,4,5*46
$PSSGR,GSA,A,3,,,,,,,,,,,,,2.4,1.9,1.4,4,3*40
$PSSGR,GSA,A,3,103,125,,,,,,,,,,,2.4,1.9,1.4,3,7*47
$PSSGR,GSA,A,3,,,,,,,,,,,,,2.4,1.9,1.4,3,1*45
$GPGSV,3,1,10,29,78,232,19,25,67,081,24,28,57,287,42,31,34,309,42*76
$GPGSV,3,2,10,12,32,093,13,11,25,048,18,32,13,234,20,18,12,180,17*70
$GPGSV,3,3,10,26,11,290,39,20,09,076,13*75
$GLGSV,3,1,11,80,61,333,43,81,60,051,23,82,59,177,19,79,54,106,13*63
$GLGSV,3,2,11,83,17,195,,71,12,316,39,73,09,311,32,88,09,029,23*63
$GLGSV,3,3,11,78,05,123,16,72,05,000,23,70,03,270,*58
$BDGSV,3,1,10,224,86,204,15,244,74,148,20,212,55,192,,226,35,133,*67
$BDGSV,3,2,10,225,33,306,42,234,27,210,25,208,23,070,21,238,20,056,*6D
$BDGSV,3,3,10,211,06,212,17,210,03,074,*69
$GAGSV,3,1,10,124,72,320,35,131,48,091,22,112,43,144,,133,41,064,26*6F
$GAGSV,3,2,10,110,27,168,12,105,21,254,15,125,21,289,42,103,17,307,36*64
$GAGSV,3,3,10,126,07,029,15,111,06,185,14*6A
$GPGSA,A,3,25,26,28,31,,,,,,,,,2.4,1.9,1.4*32
$GPGSA,A,3,,,,,,,,,,,,,2.4,1.9,1.4,8*2D
$GPGSA,A,3,,,,,,,,,,,,,2.4,1.9,1.4,9*2C
$QZGSA,A,3,,,,,,,,,,,,,2.4,1.9,1.4*25
$QZGSA,A,3,,,,,,,,,,,,,2.4,1.9,1.4,8*31
$QZGSA,A,3,,,,,,,,,,,,,2.4,1.9,1.4,9*30
$BDGSA,A,3,208,225,,,,,,,,,,,2.4,1.9,1.4*27
$BDGSA,A,3,,,,,,,,,,,,,2.4,1.9,1.4,5*31
$BDGSA,A,3,,,,,,,,,,,,,2.4,1.9,1.4,3*37
$GAGSA,A,3,103,125,,,,,,,,,,,2.4,1.9,1.4*2C
$GAGSA,A,3,,,,,,,,,,,,,2.4,1.9,1.4,1*35
$GNGSA,A,3,25,26,28,31,,,,,,,,,2.4,1.9,1.4*2C
$GNGSA,A,3,73,80,81,88,,,,,,,,,2.4,1.9,1.4*22
$PGLOR,1,FIX,1.0,1.0*20
$GPRMC,140151.00,A,4530.203085,N,00913.478551,E,000.0,,020224,,,A*79
$PGLOR,SPL,39240302150151.9,POS,20240202140151.000,45.503385,9.224643,15,15,0,194,13,1.100000*61
$GPGGA,140152.00,4530.203017,N,00913.478702,E,1,09,1.4,145.7,M,48.1,M,,*69
$PGLOR,1,UNC,140152.00,0.045,14.1,13.1,20.00,61.11,19.7,7.9,90.0*25
$PGLOR,2,SAT,7,1,B24,07,20,G29,15,20,B44,15,31,E24,30,23,G25,19,23,R16,39,2F*58
$PGLOR,2,SAT,7,2,R17,21,27,R18,14,20,G28,37,2F,B12,,20,R15,09,20,E31,19,20*57
$PGLOR,2,SAT,7,3,E12,,20,E33,21,23,B26,09,20,G31,38,2F,B25,38,2F,G12,08,20*36
$PGLOR,2,SAT,7,4,B34,21,23,E10,07,20,G11,13,20,B08,17,2F,E05,10,20,E25,38,2F*36
$PGLOR,2,SAT,7,5,B38,,30,R19,,20,E03,32,2F,G32,17,23,G18,12,20,R07,36,23*4E
$PGLOR,2,SAT,7,6,G26,34,2F,G20,08,20,R09,26,23,R24,19,23,E26,10,20,B11,13,20*4F
$PGLOR,2,SAT,7,7,E11,10,20,R14,11,20,R08,19,23,R06,,20,B10,,20*49
$PGLOR,2,SVC,GPS,0,3,1,10,025,CLIN,CLIN,028,SKUS,SKUS,029,SKUS,SKUS,031,SKUS,SKUS*6D
$PGLOR,2,SVC,GPS,0,3,2,10,011,CLIN,CLIN,012,CLIN,CLIN,018,SKPR,SKPR,032,RLPR,DOPE*63
$PGLOR,2,SVC,GPS,0,3,3,10,020,SKUS,SKUS,026,CLIN,CLIN*6D
$PGLOR,2,SVC,GLO,0,3,1,11,056,SKUS,SKUS,058,SKUS,SKPR,059,CLIN,CLIN,063,CLIN,CLIN*6B
$PGLOR,2,SVC,GLO,0,3,2,11,057,CLIN,CLIN,061,SKPR,SKPR,062,SKUS,SKUS,064,SKUS,SKUS*68
$PGLOR,2,SVC,GLO,0,3,3,11,052,CLIN,CLIN,055,CLIN,CLIN,065,CLIN,CLIN*72
$PGLOR,2,SVC,BDS,0,3,1,10,087,CLIN,CLIN,099,SKPR,SKPR,101,CLIN,CLIN,119,CLIN,CLIN*7E
$PGLOR,2,SVC,BDS,0,3,2,10,083,SKUS,SKUS,100,SKPR,SKPR,109,SKUS,SKPR,113,CLIN,CLIN*7E
$PGLOR,2,SVC,BDS,0,3,3,10,085,CLIN,CLIN,086,CLIN,CLIN*79
$PGLOR,2,SVC,GAL,0,3,1,10,150,SKPR,SKPR,162,CLIN,CLIN,169,CLIN,CLIN,171,SKPR,SKPR*6F
$PGLOR,2,SVC,GAL,0,3,2,10,141,CLIN,CLIN,143,CLIN,CLIN,148,SKUS,SKUS,163,SKUS,SKUS*6F
$PGLOR,2,SVC,GAL,0,3,3,10,149,CLIN,CLIN,164,CLIN,CLIN*6A
$PGLOR,2,SIO,TxERR,0,RxERR,0,TxCNT,842,RxCNT,15428,MLFRMPKT,0,DTMS,996,DTIN,22,36,DTOUT,16,961,HATMD,127*2F
$PGLOR,2,HLA,140152.00,L,,Al,,A,,H,,,M,0,Ac,0,Gr,0,S,,,Sx,,,T,0,Tr,,Mn,,Ap,,Ta,0,,,Aa,1,Ga,1,*19
$PGLOR,3,CTX,140152.00,E,3,1,,,V,1,0,S,,,*78
$PGLOR,1,LSQ,140152.00,,,,,,,,,,,,,,,,00,,*38
$PGLOR,0,PPS,020224,140152.000,010181,215835.989,000.100,1,0,1,*1A
$PGLOR,3,AGC,G,32.2,R,47.2,B,47.0,E5A,,AL1,21.6,AL5,,LTE,,PM1,,PM5,*0F
$PSSGR,GSA,A,3,26,28,31,,,,,,,,,,3.3,2.9,1.5,1,1*4F
$PSSGR,GSA,A,3,,,,,,,,,,,,,3.3,2.9,1.5,1,8*4A
$PSSGR,GSA,A,3,,,,,,,,,,,,,3.3,2.9,1.5,1,9*4B
$PSSGR,GSA,A,3,80,81,,,,,,,,,,,3.3,2.9,1.5,2,1*41
$PSSGR,GSA,A,3,,,,,,,,,,,,,3.3,2.9,1.5,5,1*47
$PSSGR,GSA,A,3,,,,,,,,,,,,,3.3,2.9,1.5,5,8*4E
$PSSGR,GSA,A,3,,,,,,,,,,,,,3.3,2.9,1.5,5,9*4F
$PSSGR,GSA,A,3,208,225,,,,,,,,,,,3.3,2.9,1.5,4,1*49
$PSSGR,GSA,A,3,,,,,,,,,,,,,3.3,2.9,1.5,4,5*42
$PSSGR,GSA,A,3,,,,,,,,,,,,,3.3,2.9,1.5,4,3*44
$PSSGR,GSA,A,3,103,125,,,,,,,,,,,3.3,2.9,1.5,3,7*43
$PSSGR,GSA,A,3,,,,,,,,,,,,,3.3,2.9,1.5,3,1*41
$GPGSV,3,1,10,29,78,232,19,25,67,081,23,28,57,287,41,31,34,309,42*72
$GPGSV,3,2,10,12,32,093,12,11,25,048,17,32,13,234,21,18,12,180,16*7E
$GPGSV,3,3,10,26,11,290,38,20,09,076,12*75
$GLGSV,3,1,11,80,61,333,43,81,60,051,25,82,59,177,18,79,54,106,13*64
$GLGSV,3,2,11,83,17,195,,71,12,316,40,73,09,311,30,88,09,029,23*6F
$GLGSV,3,3,11,78,05,123,15,72,05,000,23,70,03,270,*5B
$BDGSV,3,1,10,224,86,203,11,244,74,148,19,212,55,192,,226,35,133,13*6C
$BDGSV,3,2,10,225,33,306,42,234,27,210,25,208,23,070,21,238,20,056,*6D
$BDGSV,3,3,10,211,06,212,17,210,03,074,*69
$GAGSV,3,1,10,124,72,320,34,131,48,091,23,112,43,144,,133,41,064,25*6C
$GAGSV,3,2,10,110,27,168,11,105,21,254,14,125,21,289,42,103,17,307,36*66
$GAGSV,3,3,10,126,07,029,14,111,06,185,14*6B
$GPGSA,A,3,26,28,31,,,,,,,,,,3.3,2.9,1.5*31
$GPGSA,A,3,,,,,,,,,,,,,3.3,2.9,1.5,8*29
$GPGSA,A,3,,,,,,,,,,,,,3.3,2.9,1.5,9*28
$QZGSA,A,3,,,,,,,,,,,,,3.3,2.9,1.5*21
$QZGSA,A,3,,,,,,,,,,,,,3.3,2.9,1.5,8*35
$QZGSA,A,3,,,,,,,,,,,,,3.3,2.9,1.5,9*34
$BDGSA,A,3,208,225,,,,,,,,,,,3.3,2.9,1.5*23
$BDGSA,A,3,,,,,,,,,,,,,3.3,2.9,1.5,5*35
$BDGSA,A,3,,,,,,,,,,,,,3.3,2.9,1.5,3*33
$GAGSA,A,3,103,125,,,,,,,,,,,3.3,2.9,1.5*28
$GAGSA,A,3,,,,,,,,,,,,,3.3,2.9,1.5,1*31
$GNGSA,A,3,26,28,31,,,,,,,,,,3.3,2.9,1.5*2F
$GNGSA,A,3,80,81,,,,,,,,,,,3.3,2.9,1.5*22
$PGLOR,1,FIX,1.0,1.0*20
$GPRMC,140152.00,A,4530.203017,N,00913.478702,E,000.0,,020224,,,A*75
$PGLOR,SPL,39240302150152.9,POS,20240202140152.000,45.503384,9.224645,14,14,0,194,13,1.100000*66
$GPGGA,140153.00,4530.203005,N,00913.478682,E,1,12,1.4,145.4,M,48.1,M,,*6B
$PGLOR,1,UNC,140153.00,0.045,13.8,12.9,20.00,180.00,19.1,8.0,89.7*12
$PGLOR,2,SAT,7,1,B24,,20,G29,16,20,B44,16,31,E24,29,23,G25,19,27,R16,39,2F*53
$PGLOR,2,SAT,7,2,R17,21,27,R18,15,20,G28,37,2F,B12,,20,R15,10,20,E31,18,20*5F
$PGLOR,2,SAT,7,3,E12,,20,E33,22,23,B26,08,20,G31,38,2F,B25,38,2F,G12,08,20*34
$PGLOR,2,SAT,7,4,B34,22,23,E10,08,20,G11,13,20,B08,17,23,E05,09,20,E25,38,2F*47
$PGLOR,2,SAT,7,5,B38,,30,R19,,20,E03,32,2F,G32,15,23,G18,12,20,R07,35,2F*3A
$PGLOR,2,SAT,7,6,G26,34,2F,G20,07,20,R09,26,2F,R24,17,2F,E26,09,20,B11,12,20*47
$PGLOR,2,SAT,7,7,E11,09,20,R14,12,20,R08,19,23,R06,,20,B10,,20*42
$PGLOR,2,SVC,GPS,0,3,1,10,025,CLIN,CLIN,028,SKPR,SKPR,029,SKUS,SKUS,031,SKUS,SKUS*6D
$PGLOR,2,SVC,GPS,0,3,2,10,011,CLIN,CLIN,012,CLIN,CLIN,018,SKPR,SKPR,032,CLIN,CLIN*61
$PGLOR,2,SVC,GPS,0,3,3,10,020,SKUS,SKUS,026,CLIN,CLIN*6D
$PGLOR,2,SVC,GLO,0,3,1,11,056,SKUS,SKUS,058,SKUS,SKPR,059,CLIN,CLIN,063,CLIN,CLIN*6B
$PGLOR,2,SVC,GLO,0,3,2,11,057,CLIN,CLIN,061,SKPR,SKPR,062,SKPR,SKPR,064,SKPR,SKPR*68
$PGLOR,2,SVC,GLO,0,3,3,11,052,CLIN,CLIN,055,RLPR,DOPE,065,CLIN,CLIN*70
$PGLOR,2,SVC,BDS,0,3,1,10,087,CLIN,CLIN,099,RLPR,DOPE,101,CLIN,CLIN,119,CLIN,CLIN*7C
$PGLOR,2,SVC,BDS,0,3,2,10,083,SKUS,SKUS,100,SKPR,SKPR,109,SKUS,SKUS,113,CLIN,CLIN*7A
$PGLOR,2,SVC,BDS,0,3,3,10,085,CLIN,CLIN,086,CLIN,CLIN*79
$PGLOR,2,SVC,GAL,0,3,1,10,150,SKPR,SKPR,162,CLIN,CLIN,169,CLIN,CLIN,171,SKPR,SKPR*6F
$PGLOR,2,SVC,GAL,0,3,2,10,141,CLIN,CLIN,143,CLIN,CLIN,148,SKUS,SKUS,163,SKUS,SKUS*6F
$PGLOR,2,SVC,GAL,0,3,3,10,149,CLIN,CLIN,164,CLIN,CLIN*6A
$PGLOR,2,SIO,TxERR,0,RxERR,0,TxCNT,929,RxCNT,15292,MLFRMPKT,0,DTMS,1003,DTIN,18,43,DTOUT,18,959,HATMD,130*18
$PGLOR,2,HLA,140153.00,L,,Al,,A,,H,,,M,0,Ac,0,Gr,0,S,,,Sx,,,T,0,Tr,,Mn,,Ap,,Ta,0,,,Aa,1,Ga,1,*18
$PGLOR,3,CTX,140153.00,E,3,1,,,V,1,0,S,,,*79
$PGLOR,1,LSQ,140153.00,,,,,,,,,,,,,,,,00,,*39
$PGLOR,0,PPS,020224,140153.000,010181,215836.989,000.100,1,0,1,*18
$PGLOR,3,AGC,G,32.5,R,48.7,B,46.3,E5A,,AL1,21.6,AL5,,LTE,,PM1,,PM5,*00
$PSSGR,GSA,A,3,25,26,28,31,,,,,,,,,2.8,2.2,1.8,1,1*44
$PSSGR,GSA,A,3,,,,,,,,,,,,,2.8,2.2,1.8,1,8*46
$PSSGR,GSA,A,3,,,,,,,,,,,,,2.8,2.2,1.8,1,9*47
$PSSGR,GSA,A,3,71,73,80,81,88,,,,,,,,2.8,2.2,1.8,2,1*4F
$PSSGR,GSA,A,3,,,,,,,,,,,,,2.8,2.2,1.8,5,1*4B
$PSSGR,GSA,A,3,,,,,,,,,,,,,2.8,2.2,1.8,5,8*42
$PSSGR,GSA,A,3,,,,,,,,,,,,,2.8,2.2,1.8,5,9*43
$PSSGR,GSA,A,3,225,,,,,,,,,,,,2.8,2.2,1.8,4,1*7F
$PSSGR,GSA,A,3,,,,,,,,,,,,,2.8,2.2,1.8,4,5*4E
$PSSGR,GSA,A,3,,,,,,,,,,,,,2.8,2.2,1.8,4,3*48
$PSSGR,GSA,A,3,103,125,,,,,,,,,,,2.8,2.2,1.8,3,7*4F
$PSSGR,GSA,A,3,,,,,,,,,,,,,2.8,2.2,1.8,3,1*4D
$GPGSV,3,1,10,29,78,232,20,25,67,081,23,28,57,287,41,31,34,309,42*78
$GPGSV,3,2,10,12,32,093,12,11,25,048,17,32,13,234,19,18,12,180,16*75
$GPGSV,3,3,10,26,11,290,38,20,09,076,11*76
$GLGSV,3,1,11,80,61,333,43,81,60,051,25,82,59,177,19,79,54,106,14*62
$GLGSV,3,2,11,83,17,195,,71,12,316,39,73,09,311,30,88,09,029,21*63
$GLGSV,3,3,11,78,05,123,16,72,05,000,23,70,03,270,*58
$BDGSV,3,1,10,224,86,203,,244,74,148,20,212,55,192,,226,35,133,12*67
$BDGSV,3,2,10,225,33,306,42,234,27,210,26,208,23,070,21,238,20,056,*6E
$BDGSV,3,3,10,211,06,212,16,210,03,074,*68
$GAGSV,3,1,10,124,72,320,33,131,48,091,22,112,43,144,,133,41,064,26*69
$GAGSV,3,2,10,110,27,168,12,105,21,254,13,125,21,289,42,103,17,307,36*62
$GAGSV,3,3,10,126,07,029,13,111,06,185,13*6B
$GPGSA,A,3,25,26,28,31,,,,,,,,,2.8,2.2,1.8*3A
$GPGSA,A,3,,,,,,,,,,,,,2.8,2.2,1.8,8*25
$GPGSA,A,3,,,,,,,,,,,,,2.8,2.2,1.8,9*24
$QZGSA,A,3,,,,,,,,,,,,,2.8,2.2,1.8*2D
$QZGSA,A,3,,,,,,,,,,,,,2.8,2.2,1.8,8*39
$QZGSA,A,3,,,,,,,,,,,,,2.8,2.2,1.8,9*38
$BDGSA,A,3,225,,,,,,,,,,,,2.8,2.2,1.8*15
$BDGSA,A,3,,,,,,,,,,,,,2.8,2.2,1.8,5*39
$BDGSA,A,3,,,,,,,,,,,,,2.8,2.2,1.8,3*3F
$GAGSA,A,3,103,125,,,,,,,,,,,2.8,2.2,1.8*24
$GAGSA,A,3,,,,,,,,,,,,,2.8,2.2,1.8,1*3D
$GNGSA,A,3,25,26,28,31,,,,,,,,,2.8,2.2,1.8*24
$GNGSA,A,3,71,73,80,81,88,,,,,,,,2.8,2.2,1.8*2C
$PGLOR,1,FIX,1.0,1.0*20
$GPRMC,140153.00,A,4530.203005,N,00913.478682,E,000.0,,020224,,,A*7E
$PGLOR,SPL,39240302150153.9,POS,20240202140153.000,45.503383,9.224645,14,14,0,194,13,1.100000*61
$GPGGA,140154.00,4530.202796,N,00913.478533,E,1,12,1.4,145.1,M,48.1,M,,*6C
$PGLOR,1,UNC,140154.00,0.044,13.5,12.7,20.00,61.81,18.5,8.2,89.5*25
$PGLOR,2,SAT,7,1,B24,08,20,G29,16,20,B44,16,31,E24,29,23,G25,18,2F,R16,39,2F*2B
$PGLOR,2,SAT,7,2,R17,22,21,R18,14,20,G28,37,2F,B12,,20,R15,11,20,E31,18,27*5D
$PGLOR,2,SAT,7,3,E12,,20,E33,21,23,B26,10,20,G31,37,2F,B25,38,2F,G12,,20*39
$PGLOR,2,SAT,7,4,B34,22,23,E10,08,20,G11,14,20,B08,17,23,E05,10,20,E25,38,2F*48
$PGLOR,2,SAT,7,5,B38,,30,R19,,20,E03,32,2F,G32,16,23,G18,12,20,R07,36,2F*3A
$PGLOR,2,SAT,7,6,G26,34,2F,G20,07,20,R09,25,27,R24,17,2F,E26,08,20,B11,12,20*34
$PGLOR,2,SAT,7,7,E11,08,20,R14,11,20,R08,19,23,R06,,20,B10,,20*40
$PGLOR,2,SVC,GPS,0,3,1,10,025,CLIN,CLIN,028,SKUS,SKPR,029,SKUS,SKUS,031,SKUS,SKUS*69
$PGLOR,2,SVC,GPS,0,3,2,10,011,CLIN,CLIN,012,CLIN,CLIN,018,SKPR,SKPR,032,CLIN,CLIN*61
$PGLOR,2,SVC,GPS,0,3,3,10,020,SKUS,SKUS,026,CLIN,CLIN*6D
$PGLOR,2,SVC,GLO,0,3,1,11,056,SKUS,SKUS,058,SKUS,SKPR,059,CLIN,CLIN,063,CLIN,CLIN*6B
$PGLOR,2,SVC,GLO,0,3,2,11,057,CLIN,CLIN,061,SKUS,SKUS,062,SKUS,SKUS,064,SKUS,SKUS*68
$PGLOR,2,SVC,GLO,0,3,3,11,052,CLIN,CLIN,055,RLPR,DOPE,065,CLIN,CLIN*70
$PGLOR,2,SVC,BDS,0,3,1,10,087,CLIN,CLIN,099,RLPR,DOPE,101,CLIN,CLIN,119,CLIN,CLIN*7C
$PGLOR,2,SVC,BDS,0,3,2,10,083,SKUS,SKUS,100,SKPR,SKPR,109,SKPR,SKPR,113,CLIN,CLIN*7A
$PGLOR,2,SVC,BDS,0,3,3,10,085,CLIN,CLIN,086,CLIN,CLIN*79
$PGLOR,2,SVC,GAL,0,3,1,10,150,SKPR,SKPR,162,CLIN,CLIN,169,CLIN,CLIN,171,SKPR,SKPR*6F
$PGLOR,2,SVC,GAL,0,3,2,10,141,CLIN,CLIN,143,CLIN,CLIN,148,SKUS,SKUS,163,SKUS,SKUS*6F
$PGLOR,2,SVC,GAL,0,3,3,10,149,CLIN,CLIN,164,CLIN,CLIN*6A
$PGLOR,2,SIO,TxERR,0,RxERR,0,TxCNT,841,RxCNT,15616,MLFRMPKT,0,DTMS,999,DTIN,24,41,DTOUT,16,957,HATMD,129*21
$PGLOR,2,HLA,140154.00,L,,Al,,A,,H,,,M,0,Ac,0,Gr,0,S,,,Sx,,,T,0,Tr,,Mn,,Ap,,Ta,0,,,Aa,1,Ga,1,*1F
$PGLOR,3,CTX,140154.00,E,3,1,,,V,1,0,S,,,*7E
$PGLOR,1,LSQ,140154.00,,,,,,,,,,,,,,,,00,,*3E
$PGLOR,0,PPS,020224,140154.000,010181,215837.989,000.100,1,0,1,*1E
$PGLOR,3,AGC,G,31.8,R,49.3,B,47.0,E5A,,AL1,21.6,AL5,,LTE,,PM1,,PM5,*09
$PSSGR,GSA,A,3,25,26,28,31,,,,,,,,,2.4,1.8,1.6,1,1*4F
$PSSGR,GSA,A,3,,,,,,,,,,,,,2.4,1.8,1.6,1,8*4D
$PSSGR,GSA,A,3,,,,,,,,,,,,,2.4,1.8,1.6,1,9*4C
$PSSGR,GSA,A,3,71,73,80,88,,,,,,,,,2.4,1.8,1.6,2,1*4D
$PSSGR,GSA,A,3,,,,,,,,,,,,,2.4,1.8,1.6,5,1*40
$PSSGR,GSA,A,3,,,,,,,,,,,,,2.4,1.8,1.6,5,8*49
$PSSGR,GSA,A,3,,,,,,,,,,,,,2.4,1.8,1.6,5,9*48
$PSSGR,GSA,A,3,225,,,,,,,,,,,,2.4,1.8,1.6,4,1*74
$PSSGR,GSA,A,3,,,,,,,,,,,,,2.4,1.8,1.6,4,5*45
$PSSGR,GSA,A,3,,,,,,,,,,,,,2.4,1.8,1.6,4,3*43
$PSSGR,GSA,A,3,103,125,131,,,,,,,,,,2.4,1.8,1.6,3,7*77
$PSSGR,GSA,A,3,,,,,,,,,,,,,2.4,1.8,1.6,3,1*46
$GPGSV,3,1,10,29,78,232,20,25,67,081,22,28,57,287,41,31,34,309,41*7A
$GPGSV,3,2,10,12,32,093,,11,25,048,18,32,13,234,20,18,12,180,16*73
$GPGSV,3,3,10,26,11,290,38,20,09,076,11*76
$GLGSV,3,1,11,80,61,333,43,81,60,051,26,82,59,177,18,79,54,106,15*61
$GLGSV,3,2,11,83,17,195,,71,12,316,40,73,09,311,29,88,09,029,21*65
$GLGSV,3,3,11,78,05,123,15,72,05,000,23,70,03,270,*5B
$BDGSV,3,1,10,224,86,203,12,244,74,148,20,212,55,192,,226,35,133,14*62
$BDGSV,3,2,10,225,33,306,42,234,27,210,26,208,23,070,21,238,20,056,*6E
$BDGSV,3,3,10,211,06,212,16,210,03,074,*68
$GAGSV,3,1,10,124,72,320,33,131,48,091,22,112,43,144,,133,41,064,25*6A
$GAGSV,3,2,10,110,27,168,12,105,21,254,14,125,21,289,42,103,17,307,36*65
$GAGSV,3,3,10,126,07,029,12,111,06,185,12*6B
$GPGSA,A,3,25,26,28,31,,,,,,,,,2.4,1.8,1.6*31
$GPGSA,A,3,,,,,,,,,,,,,2.4,1.8,1.6,8*2E
$GPGSA,A,3,,,,,,,,,,,,,2.4,1.8,1.6,9*2F
$QZGSA,A,3,,,,,,,,,,,,,2.4,1.8,1.6*26
$QZGSA,A,3,,,,,,,,,,,,,2.4,1.8,1.6,8*32
$QZGSA,A,3,,,,,,,,,,,,,2.4,1.8,1.6,9*33
$BDGSA,A,3,225,,,,,,,,,,,,2.4,1.8,1.6*1E
$BDGSA,A,3,,,,,,,,,,,,,2.4,1.8,1.6,5*32
$BDGSA,A,3,,,,,,,,,,,,,2.4,1.8,1.6,3*34
$GAGSA,A,3,103,125,131,,,,,,,,,,2.4,1.8,1.6*1C
$GAGSA,A,3,,,,,,,,,,,,,2.4,1.8,1.6,1*36
$GNGSA,A,3,25,26,28,31,,,,,,,,,2.4,1.8,1.6*2F
$GNGSA,A,3,71,73,80,88,,,,,,,,,2.4,1.8,1.6*2E
$PGLOR,1,FIX,1.0,1.0*20
$GPRMC,140154.00,A,4530.202796,N,00913.478533,E,000.0,,020224,,,A*7C
$PGLOR,SPL,39240302150154.9,POS,20240202140154.000,45.503380,9.224642,14,14,0,193,13,1.100000*62
$GPGGA,140155.00,4530.202577,N,00913.478431,E,1,14,1.3,144.8,M,48.1,M,,*6A
$PGLOR,1,UNC,140155.00,0.043,13.2,12.4,20.00,45.15,17.9,8.1,89.9*20
$PGLOR,2,SAT,7,1,B24,09,20,G29,16,20,B44,17,31,E24,28,23,G25,20,2F,R16,39,2F*21
$PGLOR,2,SAT,7,2,R17,22,2F,R18,14,20,G28,38,2F,B12,,20,R15,11,20,E31,20,27*2E
$PGLOR,2,SAT,7,3,E12,,20,E33,22,27,B26,12,20,G31,37,2F,B25,38,2F,G12,,20*3C
$PGLOR,2,SAT,7,4,B34,21,23,E10,08,20,G11,14,20,B08,17,23,E05,10,20,E25,38,2F*4B
$PGLOR,2,SAT,7,5,B38,,30,R19,09,20,E03,32,2F,G32,15,23,G18,12,20,R07,35,2F*33
$PGLOR,2,SAT,7,6,G26,34,2F,G20,07,20,R09,26,2F,R24,17,2F,E26,08,20,B11,11,20*45
$PGLOR,2,SAT,7,7,E11,08,20,R14,11,20,R08,19,23,R06,,20,B10,,20*40
$PGLOR,2,SVC,GPS,0,3,1,10,025,CLIN,CLIN,028,SKUS,SKUS,029,SKUS,SKUS,031,SKUS,SKUS*6D
$PGLOR,2,SVC,GPS,0,3,2,10,011,CLIN,CLIN,012,CLIN,CLIN,018,SKPR,SKPR,032,CLIN,CLIN*61
$PGLOR,2,SVC,GPS,0,3,3,10,020,SKUS,SKUS,026,CLIN,CLIN*6D
$PGLOR,2,SVC,GLO,0,3,1,11,056,SKUS,SKUS,058,RLPR,DOPE,059,CLIN,CLIN,063,CLIN,CLIN*6D
$PGLOR,2,SVC,GLO,0,3,2,11,057,CLIN,CLIN,061,SKUS,SKUS,062,SKUS,SKPR,064,SKUS,SKUS*6C
$PGLOR,2,SVC,GLO,0,3,3,11,052,CLIN,CLIN,055,RLPR,DOPE,065,CLIN,CLIN*70
$PGLOR,2,SVC,BDS,0,3,1,10,087,CLIN,CLIN,099,RLPR,DOPE,101,CLIN,CLIN,119,CLIN,CLIN*7C
$PGLOR,2,SVC,BDS,0,3,2,10,083,SKUS,SKUS,100,SKPR,SKPR,109,SKPR,SKPR,113,CLIN,CLIN*7A
$PGLOR,2,SVC,BDS,0,3,3,10,085,CLIN,CLIN,086,CLIN,CLIN*79
$PGLOR,2,SVC,GAL,0,3,1,10,150,SKPR,SKPR,162,SKUS,SKPR,169,CLIN,CLIN,171,SKPR,SKPR*6B
$PGLOR,2,SVC,GAL,0,3,2,10,141,CLIN,CLIN,143,CLIN,CLIN,148,SKUS,SKUS,163,SKUS,SKUS*6F
$PGLOR,2,SVC,GAL,0,3,3,10,149,CLIN,CLIN,164,CLIN,CLIN*6A
$PGLOR,2,SIO,TxERR,0,RxERR,0,TxCNT,929,RxCNT,15260,MLFRMPKT,0,DTMS,997,DTIN,26,57,DTOUT,21,941,HATMD,126*2C
$PGLOR,2,HLA,140155.00,L,,Al,,A,,H,,,M,0,Ac,0,Gr,0,S,,,Sx,,,T,0,Tr,,Mn,,Ap,,Ta,0,,,Aa,1,Ga,1,*1E
$PGLOR,3,CTX,140155.00,E,2,0,,,V,1,0,S,,,*7F
$PGLOR,1,LSQ,140155.00,,,,,,,,,,,,,,,,00,,*3F
$PGLOR,0,PPS,020224,140155.000,010181,215838.989,000.100,1,0,1,*10
$PGLOR,3,AGC,G,31.8,R,48.8,B,48.3,E5A,,AL1,21.6,AL5,,LTE,,PM1,,PM5,*0F
$PSSGR,GSA,A,3,25,26,28,31,,,,,,,,,2.8,2.2,1.8,1,1*44
$PSSGR,GSA,A,3,,,,,,,,,,,,,2.8,2.2,1.8,1,8*46
$PSSGR,GSA,A,3,,,,,,,,,,,,,2.8,2.2,1.8,1,9*47
$PSSGR,GSA,A,3,71,73,80,81,88,,,,,,,,2.8,2.2,1.8,2,1*4F
$PSSGR,GSA,A,3,,,,,,,,,,,,,2.8,2.2,1.8,5,1*4B
$PSSGR,GSA,A,3,,,,,,,,,,,,,2.8,2.2,1.8,5,8*42
$PSSGR,GSA,A,3,,,,,,,,,,,,,2.8,2.2,1.8,5,9*43
$PSSGR,GSA,A,3,225,,,,,,,,,,,,2.8,2.2,1.8,4,1*7F
$PSSGR,GSA,A,3,,,,,,,,,,,,,2.8,2.2,1.8,4,5*4E
$PSSGR,GSA,A,3,,,,,,,,,,,,,2.8,2.2,1.8,4,3*48
$PSSGR,GSA,A,3,103,125,131,133,,,,,,,,,2.8,2.2,1.8,3,7*4D
$PSSGR,GSA,A,3,,,,,,,,,,,,,2.8,2.2,1.8,3,1*4D
$GPGSV,3,1,10,29,78,232,20,25,67,081,24,28,57,287,42,31,34,309,41*7F
$GPGSV,3,2,10,12,32,093,,11,25,048,18,32,13,234,19,18,12,180,16*79
$GPGSV,3,3,10,26,11,290,38,20,09,076,11*76
$GLGSV,3,1,11,80,61,333,43,81,60,051,26,82,59,177,18,79,54,106,15*61
$GLGSV,3,2,11,83,17,195,13,71,12,316,39,73,09,311,30,88,09,029,21*61
$GLGSV,3,3,11,78,05,123,15,72,05,000,23,70,03,270,*5B
$BDGSV,3,1,10,224,86,203,13,244,74,148,21,212,55,192,,226,35,133,16*60
$BDGSV,3,2,10,225,33,306,42,234,27,210,25,208,23,070,21,238,20,056,*6D
$BDGSV,3,3,10,211,06,212,15,210,03,074,*6B
$GAGSV,3,1,10,124,72,320,32,131,48,091,24,112,43,144,,133,41,064,26*6E
$GAGSV,3,2,10,110,27,168,12,105,21,254,14,125,21,289,42,103,17,307,36*65
$GAGSV,3,3,10,126,07,029,12,111,06,185,12*6B
$GPGSA,A,3,25,26,28,31,,,,,,,,,2.8,2.2,1.8*3A
$GPGSA,A,3,,,,,,,,,,,,,2.8,2.2,1.8,8*25
$GPGSA,A,3,,,,,,,,,,,,,2.8,2.2,1.8,9*24
$QZGSA,A,3,,,,,,,,,,,,,2.8,2.2,1.8*2D
$QZGSA,A,3,,,,,,,,,,,,,2.8,2.2,1.8,8*39
$QZGSA,A,3,,,,,,,,,,,,,2.8,2.2,1.8,9*38
$BDGSA,A,3,225,,,,,,,,,,,,2.8,2.2,1.8*15
$BDGSA,A,3,,,,,,,,,,,,,2.8,2.2,1.8,5*39
$BDGSA,A,3,,,,,,,,,,,,,2.8,2.2,1.8,3*3F
$GAGSA,A,3,103,125,131,133,,,,,,,,,2.8,2.2,1.8*26
$GAGSA,A,3,,,,,,,,,,,,,2.8,2.2,1.8,1*3D
$GNGSA,A,3,25,26,28,31,,,,,,,,,2.8,2.2,1.8*24
$GNGSA,A,3,71,73,80,81,88,,,,,,,,2.8,2.2,1.8*2C
$PGLOR,1,FIX,1.0,1.0*20
$GPRMC,140155.00,A,4530.202577,N,00913.478431,E,000.0,,020224,,,A*73
$PGLOR,SPL,39240302150155.9,POS,20240202140155.000,45.503376,9.224641,13,13,0,193,12,1.100000*69
$GPGGA,140156.00,4530.202371,N,00913.478344,E,1,13,1.3,144.5,M,48.1,M,,*66
$PGLOR,1,UNC,140156.00,0.042,12.8,12.1,20.00,75.50,17.4,7.8,90.3*27
$PGLOR,2,SAT,7,1,B24,10,20,G29,16,20,B44,18,30,E24,26,23,G25,20,2F,R16,39,2F*29
$PGLOR,2,SAT,7,2,R17,22,27,R18,14,20,G28,38,2F,B12,,20,R15,10,20,E31,22,27*5C
$PGLOR,2,SAT,7,3,E12,,20,E33,23,27,B26,14,20,G31,37,2F,B25,38,2F,G12,,20*3B
$PGLOR,2,SAT,7,4,B34,21,23,E10,07,20,G11,15,20,B08,18,23,E05,09,20,E25,38,2F*42
$PGLOR,2,SAT,7,5,B38,08,30,R19,09,20,E03,32,2F,G32,14,21,G18,11,20,R07,35,2F*3B
$PGLOR,2,SAT,7,6,G26,33,2F,G20,08,20,R09,27,23,R24,17,2F,E26,,20,B11,08,20*39
$PGLOR,2,SAT,7,7,E11,,20,R14,10,20,R08,19,23,R06,,20,B10,,20*49
$PGLOR,2,SVC,GPS,0,3,1,10,025,CLIN,CLIN,028,SKUS,SKUS,029,SKUS,SKUS,031,SKUS,SKUS*6D
$PGLOR,2,SVC,GPS,0,3,2,10,011,CLIN,CLIN,012,CLIN,CLIN,018,SKPR,SKPR,032,CLIN,CLIN*61
$PGLOR,2,SVC,GPS,0,3,3,10,020,SKUS,SKUS,026,CLIN,CLIN*6D
$PGLOR,2,SVC,GLO,0,3,1,11,056,SKUS,SKUS,058,SKUS,SKUS,059,CLIN,CLIN,063,CLIN,CLIN*6F
$PGLOR,2,SVC,GLO,0,3,2,11,057,CLIN,CLIN,061,SKUS,SKUS,062,SKUS,SKUS,064,SKUS,SKUS*68
$PGLOR,2,SVC,GLO,0,3,3,11,052,CLIN,CLIN,055,RLPR,DOPE,065,CLIN,CLIN*70
$PGLOR,2,SVC,BDS,0,3,1,10,087,CLIN,CLIN,099,RLPR,DOPE,101,CLIN,CLIN,119,CLIN,CLIN*7C
$PGLOR,2,SVC,BDS,0,3,2,10,083,SKUS,SKUS,100,SKPR,SKPR,109,SKPR,SKPR,113,CLIN,CLIN*7A
$PGLOR,2,SVC,BDS,0,3,3,10,085,CLIN,CLIN,086,CLIN,CLIN*79
$PGLOR,2,SVC,GAL,0,3,1,10,150,SKPR,SKPR,162,SKUS,SKPR,169,CLIN,CLIN,171,SKUS,SKPR*6F
$PGLOR,2,SVC,GAL,0,3,2,10,141,CLIN,CLIN,143,CLIN,CLIN,148,SKUS,SKUS,163,SKUS,SKUS*6F
$PGLOR,2,SVC,GAL,0,3,3,10,149,CLIN,CLIN,164,CLIN,CLIN*6A
$PGLOR,2,SIO,TxERR,0,RxERR,0,TxCNT,850,RxCNT,15464,MLFRMPKT,0,DTMS,1001,DTIN,26,50,DTOUT,15,951,HATMD,127*16
$PGLOR,2,HLA,140156.00,L,,Al,,A,,H,,,M,0,Ac,0,Gr,0,S,,,Sx,,,T,0,Tr,,Mn,,Ap,,Ta,0,,,Aa,1,Ga,1,*1D
$PGLOR,3,CTX,140156.00,E,2,0,,,V,1,0,S,,,*7C
$PGLOR,1,LSQ,140156.00,,,,,,,,,,,,,,,,00,,*3C
$PGLOR,0,PPS,020224,140156.000,010181,215839.989,000.100,1,0,1,*12
$PGLOR,3,AGC,G,31.6,R,48.7,B,48.9,E5A,,AL1,21.6,AL5,,LTE,,PM1,,PM5,*04
$PSSGR,GSA,A,3,25,26,28,31,,,,,,,,,2.3,1.7,1.6,1,1*47
$PSSGR,GSA,A,3,,,,,,,,,,,,,2.3,1.7,1.6,1,8*45
$PSSGR,GSA,A,3,,,,,,,,,,,,,2.3,1.7,1.6,1,9*44
$PSSGR,GSA,A,3,71,80,81,88,,,,,,,,,2.3,1.7,1.6,2,1*48
$PSSGR,GSA,A,3,,,,,,,,,,,,,2.3,1.7,1.6,5,1*48
$PSSGR,GSA,A,3,,,,,,,,,,,,,2.3,1.7,1.6,5,8*41
$PSSGR,GSA,A,3,,,,,,,,,,,,,2.3,1.7,1.6,5,9*40
$PSSGR,GSA,A,3,225,,,,,,,,,,,,2.3,1.7,1.6,4,1*7C
$PSSGR,GSA,A,3,,,,,,,,,,,,,2.3,1.7,1.6,4,5*4D
$PSSGR,GSA,A,3,,,,,,,,,,,,,2.3,1.7,1.6,4,3*4B
$PSSGR,GSA,A,3,103,125,131,133,,,,,,,,,2.3,1.7,1.6,3,7*4E
$PSSGR,GSA,A,3,,,,,,,,,,,,,2.3,1.7,1.6,3,1*4E
$GPGSV,3,1,10,29,78,232,20,25,67,081,24,28,57,287,42,31,34,309,41*7F
$GPGSV,3,2,10,12,32,093,,11,25,048,19,32,13,234,18,18,12,180,15*7A
$GPGSV,3,3,10,26,11,290,37,20,09,076,12*7A
$GLGSV,3,1,11,80,61,333,43,81,60,051,26,82,59,177,18,79,54,106,14*60
$GLGSV,3,2,11,83,17,195,13,71,12,316,39,73,09,311,31,88,09,029,21*60
$GLGSV,3,3,11,78,05,123,14,72,05,000,23,70,03,270,*5A
$BDGSV,3,1,10,224,86,203,14,244,74,148,22,212,55,192,,226,35,133,18*6A
$BDGSV,3,2,10,225,33,306,42,234,27,210,25,208,23,070,22,238,20,056,12*6D
$BDGSV,3,3,10,211,06,212,12,210,03,074,*6C
$GAGSV,3,1,10,124,72,320,30,131,48,091,26,112,43,144,,133,41,064,27*6F
$GAGSV,3,2,10,110,27,168,11,105,21,254,13,125,21,289,42,103,17,307,36*61
$GAGSV,3,3,10,126,07,029,,111,06,185,*6B
$GPGSA,A,3,25,26,28,31,,,,,,,,,2.3,1.7,1.6*39
$GPGSA,A,3,,,,,,,,,,,,,2.3,1.7,1.6,8*26
$GPGSA,A,3,,,,,,,,,,,,,2.3,1.7,1.6,9*27
$QZGSA,A,3,,,,,,,,,,,,,2.3,1.7,1.6*2E
$QZGSA,A,3,,,,,,,,,,,,,2.3,1.7,1.6,8*3A
$QZGSA,A,3,,,,,,,,,,,,,2.3,1.7,1.6,9*3B
$BDGSA,A,3,225,,,,,,,,,,,,2.3,1.7,1.6*16
$BDGSA,A,3,,,,,,,,,,,,,2.3,1.7,1.6,5*3A
$BDGSA,A,3,,,,,,,,,,,,,2.3,1.7,1.6,3*3C
$GAGSA,A,3,103,125,131,133,,,,,,,,,2.3,1.7,1.6*25
$GAGSA,A,3,,,,,,,,,,,,,2.3,1.7,1.6,1*3E
$GNGSA,A,3,25,26,28,31,,,,,,,,,2.3,1.7,1.6*27
$GNGSA,A,3,71,80,81,88,,,,,,,,,2.3,1.7,1.6*2B
$PGLOR,1,FIX,1.0,1.0*20
$GPRMC,140156.00,A,4530.202371,N,00913.478344,E,000.0,,020224,,,A*75
$PGLOR,SPL,39240302150156.9,POS,20240202140156.000,45.503373,9.224639,13,13,0,193,12,1.100000*63
$GPGGA,140157.00,4530.202286,N,00913.477974,E,1,14,1.2,144.4,M,48.1,M,,*6F
$PGLOR,1,UNC,140157.00,0.041,12.5,11.9,20.00,34.11,16.9,7.8,90.7*2B
$PGLOR,2,SAT,7,1,B24,08,20,G29,18,20,B44,19,30,E24,25,23,G25,21,2F,R16,39,2F*2D
$PGLOR,2,SAT,7,2,R17,23,27,R18,14,20,G28,38,2F,B12,10,20,R15,09,20,E31,22,27*54
$PGLOR,2,SAT,7,3,E12,,20,E33,22,27,B26,13,20,G31,37,2F,B25,38,2F,G12,,20*3D
$PGLOR,2,SAT,7,4,B34,20,23,E10,08,20,G11,14,20,B08,18,23,E05,08,20,E25,38,2F*4C
$PGLOR,2,SAT,7,5,B38,,30,R19,08,20,E03,32,2F,G32,15,21,G18,10,20,R07,35,2F*32
$PGLOR,2,SAT,7,6,G26,33,2F,G20,08,20,R09,26,2F,R24,18,2F,E26,09,20,B11,13,20*41
$PGLOR,2,SAT,7,7,E11,08,20,R14,11,20,R08,21,23,R06,,20,B10,,20*4B
$PGLOR,2,SVC,GPS,0,3,1,10,025,CLIN,CLIN,028,SKUS,SKUS,029,SKUS,SKUS,031,SKUS,SKUS*6D
$PGLOR,2,SVC,GPS,0,3,2,10,011,CLIN,CLIN,012,CLIN,CLIN,018,RLPR,DOPE,032,CLIN,CLIN*63
$PGLOR,2,SVC,GPS,0,3,3,10,020,SKUS,SKUS,026,CLIN,CLIN*6D
$PGLOR,2,SVC,GLO,0,3,1,11,056,SKUS,SKUS,058,SKUS,SKPR,059,CLIN,CLIN,063,CLIN,CLIN*6B
$PGLOR,2,SVC,GLO,0,3,2,11,057,CLIN,CLIN,061,SKUS,SKUS,062,SKPR,SKPR,064,SKUS,SKUS*68
$PGLOR,2,SVC,GLO,0,3,3,11,052,CLIN,CLIN,055,RLPR,DOPE,065,CLIN,CLIN*70
$PGLOR,2,SVC,BDS,0,3,1,10,087,CLIN,CLIN,099,CLIN,CLIN,101,CLIN,CLIN,119,CLIN,CLIN*7E
$PGLOR,2,SVC,BDS,0,3,2,10,083,SKUS,SKUS,100,SKPR,SKPR,109,SKPR,SKPR,113,CLIN,CLIN*7A
$PGLOR,2,SVC,BDS,0,3,3,10,085,CLIN,CLIN,086,CLIN,CLIN*79
$PGLOR,2,SVC,GAL,0,3,1,10,150,SKPR,SKPR,162,SKUS,SKPR,169,CLIN,CLIN,171,SKUS,SKPR*6F
$PGLOR,2,SVC,GAL,0,3,2,10,141,CLIN,CLIN,143,CLIN,CLIN,148,SKUS,SKUS,163,SKUS,SKUS*6F
$PGLOR,2,SVC,GAL,0,3,3,10,149,CLIN,CLIN,164,CLIN,CLIN*6A
$PGLOR,2,SIO,TxERR,0,RxERR,0,TxCNT,942,RxCNT,15460,MLFRMPKT,0,DTMS,998,DTIN,22,39,DTOUT,14,961,HATMD,125*23
$PGLOR,2,HLA,140157.00,L,,Al,,A,,H,,,M,0,Ac,0,Gr,0,S,,,Sx,,,T,0,Tr,,Mn,,Ap,,Ta,0,,,Aa,1,Ga,1,*1C
$PGLOR,3,CTX,140157.00,E,2,0,,,V,1,0,S,,,*7D
$PGLOR,1,LSQ,140157.00,,,,,,,,,,,,,,,,00,,*3D
$PGLOR,0,PPS,020224,140157.000,010181,215840.989,000.100,1,0,1,*1D
$PGLOR,3,AGC,G,31.9,R,49.0,B,45.7,E5A,,AL1,21.6,AL5,,LTE,,PM1,,PM5,*0E
$PSSGR,GSA,A,3,25,26,28,31,,,,,,,,,2.8,2.2,1.8,1,1*44
$PSSGR,GSA,A,3,,,,,,,,,,,,,2.8,2.2,1.8,1,8*46
$PSSGR,GSA,A,3,,,,,,,,,,,,,2.8,2.2,1.8,1,9*47
$PSSGR,GSA,A,3,71,73,80,81,88,,,,,,,,2.8,2.2,1.8,2,1*4F
$PSSGR,GSA,A,3,,,,,,,,,,,,,2.8,2.2,1.8,5,1*4B
$PSSGR,GSA,A,3,,,,,,,,,,,,,2.8,2.2,1.8,5,8*42
$PSSGR,GSA,A,3,,,,,,,,,,,,,2.8,2.2,1.8,5,9*43
$PSSGR,GSA,A,3,225,,,,,,,,,,,,2.8,2.2,1.8,4,1*7F
$PSSGR,GSA,A,3,,,,,,,,,,,,,2.8,2.2,1.8,4,5*4E
$PSSGR,GSA,A,3,,,,,,,,,,,,,2.8,2.2,1.8,4,3*48
$PSSGR,GSA,A,3,103,125,131,133,,,,,,,,,2.8,2.2,1.8,3,7*4D
$PSSGR,GSA,A,3,,,,,,,,,,,,,2.8,2.2,1.8,3,1*4D
$GPGSV,3,1,10,29,78,232,22,25,67,081,25,28,57,287,42,31,34,309,41*7C
$GPGSV,3,2,10,12,32,093,,11,25,048,18,32,13,234,19,18,12,180,14*7B
$GPGSV,3,3,10,26,11,290,37,20,09,076,12*7A
$GLGSV,3,1,11,80,61,333,43,81,60,051,27,82,59,177,18,79,54,106,13*66
$GLGSV,3,2,11,83,17,195,12,71,12,315,39,73,09,311,30,88,09,029,22*60
$GLGSV,3,3,11,78,05,123,15,72,05,000,25,70,03,270,*5D
$BDGSV,3,1,10,224,86,203,12,244,74,148,23,212,55,192,14,226,35,133,17*67
$BDGSV,3,2,10,225,33,306,42,234,27,210,24,208,23,070,22,238,20,056,*6F
$BDGSV,3,3,10,211,06,212,17,210,03,074,*69
$GAGSV,3,1,10,124,72,320,29,131,48,091,26,112,43,144,,133,41,064,26*66
$GAGSV,3,2,10,110,27,168,12,105,21,254,12,125,21,289,42,103,17,307,36*63
$GAGSV,3,3,10,126,07,029,13,111,06,185,12*6A
$GPGSA,A,3,25,26,28,31,,,,,,,,,2.8,2.2,1.8*3A
$GPGSA,A,3,,,,,,,,,,,,,2.8,2.2,1.8,8*25
$GPGSA,A,3,,,,,,,,,,,,,2.8,2.2,1.8,9*24
$QZGSA,A,3,,,,,,,,,,,,,2.8,2.2,1.8*2D
$QZGSA,A,3,,,,,,,,,,,,,2.8,2.2,1.8,8*39
$QZGSA,A,3,,,,,,,,,,,,,2.8,2.2,1.8,9*38
$BDGSA,A,3,225,,,,,,,,,,,,2.8,2.2,1.8*15
$BDGSA,A,3,,,,,,,,,,,,,2.8,2.2,1.8,5*39
$BDGSA,A,3,,,,,,,,,,,,,2.8,2.2,1.8,3*3F
$GAGSA,A,3,103,125,131,133,,,,,,,,,2.8,2.2,1.8*26
$GAGSA,A,3,,,,,,,,,,,,,2.8,2.2,1.8,1*3D
$GNGSA,A,3,25,26,28,31,,,,,,,,,2.8,2.2,1.8*24
$GNGSA,A,3,71,73,80,81,88,,,,,,,,2.8,2.2,1.8*2C
$PGLOR,1,FIX,1.0,1.0*20
$GPRMC,140157.00,A,4530.202286,N,00913.477974,E,000.0,,020224,,,A*7B
$PGLOR,SPL,39240302150157.9,POS,20240202140157.000,45.503371,9.224633,12,12,0,192,12,1.100000*6A
$GPGGA,140158.00,4530.202137,N,00913.477791,E,1,14,1.2,144.2,M,48.1,M,,*6A
$PGLOR,1,UNC,140158.00,0.040,12.2,11.7,20.00,44.29,16.5,7.7,91.2*27
$PGLOR,2,SAT,7,1,B24,,20,G29,17,20,B44,19,30,E24,26,23,G25,20,2F,R16,38,2F*29
$PGLOR,2,SAT,7,2,R17,23,27,R18,14,20,G28,38,2F,B12,,20,R15,09,20,E31,23,27*54
$PGLOR,2,SAT,7,3,E12,,20,E33,23,27,B26,13,20,G31,37,2F,B25,38,2F,G12,,20*3C
$PGLOR,2,SAT,7,4,B34,20,23,E10,07,20,G11,14,20,B08,19,23,E05,09,20,E25,38,2F*43
$PGLOR,2,SAT,7,5,B38,10,30,R19,07,20,E03,32,2F,G32,15,21,G18,09,20,R07,35,2F*34
$PGLOR,2,SAT,7,6,G26,33,2F,G20,07,20,R09,27,27,R24,18,27,E26,08,20,B11,08,20*44
$PGLOR,2,SAT,7,7,E11,09,20,R14,10,20,R08,21,23,R06,,20,B10,,20*4B
$PGLOR,2,SVC,GPS,0,3,1,10,025,CLIN,CLIN,028,SKUS,SKUS,029,SKUS,SKUS,031,SKUS,SKUS*6D
$PGLOR,2,SVC,GPS,0,3,2,10,011,CLIN,CLIN,012,CLIN,CLIN,018,RLPR,DOPE,032,CLIN,CLIN*63
$PGLOR,2,SVC,GPS,0,3,3,10,020,SKUS,SKUS,026,CLIN,CLIN*6D
$PGLOR,2,SVC,GLO,0,3,1,11,056,SKUS,SKUS,058,SKUS,SKPR,059,CLIN,CLIN,063,CLIN,CLIN*6B
$PGLOR,2,SVC,GLO,0,3,2,11,057,CLIN,CLIN,061,SKUS,SKUS,062,SKUS,SKUS,064,SKUS,SKUS*68
$PGLOR,2,SVC,GLO,0,3,3,11,052,CLIN,CLIN,055,RLPR,DOPE,065,CLIN,CLIN*70
$PGLOR,2,SVC,BDS,0,3,1,10,087,CLIN,CLIN,099,CLIN,CLIN,101,CLIN,CLIN,119,CLIN,CLIN*7E
$PGLOR,2,SVC,BDS,0,3,2,10,083,SKUS,SKUS,100,SKPR,SKPR,109,SKPR,SKPR,113,CLIN,CLIN*7A
$PGLOR,2,SVC,BDS,0,3,3,10,085,CLIN,CLIN,086,CLIN,CLIN*79
$PGLOR,2,SVC,GAL,0,3,1,10,150,SKPR,SKPR,162,SKUS,SKPR,169,CLIN,CLIN,171,SKUS,SKPR*6F
$PGLOR,2,SVC,GAL,0,3,2,10,141,CLIN,CLIN,143,CLIN,CLIN,148,SKUS,SKUS,163,SKUS,SKUS*6F
$PGLOR,2,SVC,GAL,0,3,3,10,149,CLIN,CLIN,164,CLIN,CLIN*6A
$PGLOR,2,SIO,TxERR,0,RxERR,0,TxCNT,851,RxCNT,15428,MLFRMPKT,0,DTMS,1005,DTIN,22,39,DTOUT,17,963,HATMD,130*15
$PGLOR,2,HLA,140158.00,L,,Al,,A,,H,,,M,0,Ac,0,Gr,0,S,,,Sx,,,T,0,Tr,,Mn,,Ap,,Ta,0,,,Aa,1,Ga,1,*13
$PGLOR,3,CTX,140158.00,E,2,0,,,V,1,0,S,,,*72
$PGLOR,1,LSQ,140158.00,,,,,,,,,,,,,,,,00,,*32
$PGLOR,0,PPS,020224,140158.000,010181,215841.989,000.100,1,0,1,*13
$PGLOR,3,AGC,G,32.3,R,47.9,B,47.9,E5A,,AL1,21.6,AL5,,LTE,,PM1,,PM5,*0C
$PSSGR,GSA,A,3,25,26,28,31,,,,,,,,,2.8,2.2,1.8,1,1*44
$PSSGR,GSA,A,3,,,,,,,,,,,,,2.8,2.2,1.8,1,8*46
$PSSGR,GSA,A,3,,,,,,,,,,,,,2.8,2.2,1.8,1,9*47
$PSSGR,GSA,A,3,71,73,80,81,88,,,,,,,,2.8,2.2,1.8,2,1*4F
$PSSGR,GSA,A,3,,,,,,,,,,,,,2.8,2.2,1.8,5,1*4B
$PSSGR,GSA,A,3,,,,,,,,,,,,,2.8,2.2,1.8,5,8*42
$PSSGR,GSA,A,3,,,,,,,,,,,,,2.8,2.2,1.8,5,9*43
$PSSGR,GSA,A,3,225,,,,,,,,,,,,2.8,2.2,1.8,4,1*7F
$PSSGR,GSA,A,3,,,,,,,,,,,,,2.8,2.2,1.8,4,5*4E
$PSSGR,GSA,A,3,,,,,,,,,,,,,2.8,2.2,1.8,4,3*48
$PSSGR,GSA,A,3,103,125,131,133,,,,,,,,,2.8,2.2,1.8,3,7*4D
$PSSGR,GSA,A,3,,,,,,,,,,,,,2.8,2.2,1.8,3,1*4D
$GPGSV,3,1,10,29,78,232,21,25,67,081,24,28,57,287,42,31,34,309,41*7E
$GPGSV,3,2,10,12,32,093,,11,25,048,18,32,13,234,19,18,12,180,13*7C
$GPGSV,3,3,10,26,11,290,37,20,09,076,11*79
$GLGSV,3,1,11,80,61,333,42,81,60,051,27,82,59,177,18,79,54,106,13*67
$GLGSV,3,2,11,83,17,195,11,71,12,315,39,73,09,311,31,88,09,029,22*62
$GLGSV,3,3,11,78,05,123,14,72,05,000,25,70,03,270,*5C
$BDGSV,3,1,10,224,86,203,,244,74,148,23,212,55,192,,226,35,133,17*61
$BDGSV,3,2,10,225,33,306,42,234,27,210,24,208,23,070,23,238,20,056,14*6B
$BDGSV,3,3,10,211,06,212,12,210,03,074,*6C
$GAGSV,3,1,10,124,72,320,30,131,48,091,27,112,43,144,,133,41,064,27*6E
$GAGSV,3,2,10,110,27,168,11,105,21,254,13,125,21,289,42,103,17,307,36*61
$GAGSV,3,3,10,126,07,029,12,111,06,185,13*6A
$GPGSA,A,3,25,26,28,31,,,,,,,,,2.8,2.2,1.8*3A
$GPGSA,A,3,,,,,,,,,,,,,2.8,2.2,1.8,8*25
$GPGSA,A,3,,,,,,,,,,,,,2.8,2.2,1.8,9*24
$QZGSA,A,3,,,,,,,,,,,,,2.8,2.2,1.8*2D
$QZGSA,A,3,,,,,,,,,,,,,2.8,2.2,1.8,8*39
$QZGSA,A,3,,,,,,,,,,,,,2.8,2.2,1.8,9*38
$BDGSA,A,3,225,,,,,,,,,,,,2.8,2.2,1.8*15
$BDGSA,A,3,,,,,,,,,,,,,2.8,2.2,1.8,5*39
$BDGSA,A,3,,,,,,,,,,,,,2.8,2.2,1.8,3*3F
$GAGSA,A,3,103,125,131,133,,,,,,,,,2.8,2.2,1.8*26
$GAGSA,A,3,,,,,,,,,,,,,2.8,2.2,1.8,1*3D
$GNGSA,A,3,25,26,28,31,,,,,,,,,2.8,2.2,1.8*24
$GNGSA,A,3,71,73,80,81,88,,,,,,,,2.8,2.2,1.8*2C
$PGLOR,1,FIX,1.0,1.0*20
$GPRMC,140158.00,A,4530.202137,N,00913.477791,E,000.0,,020224,,,A*78
$PGLOR,SPL,39240302150158.9,POS,20240202140158.000,45.503369,9.224630,12,12,0,192,12,1.100000*60
$GPGGA,140159.00,4530.201613,N,00913.478069,E,1,14,1.2,143.6,M,48.1,M,,*65
$PGLOR,1,UNC,140159.00,0.039,11.9,11.4,20.00,180.00,16.2,7.5,91.4*12
$PGLOR,2,SAT,7,1,B24,10,20,G29,19,23,B44,20,30,E24,25,23,G25,20,2F,R16,38,2F*2C
$PGLOR,2,SAT,7,2,R17,23,2F,R18,13,20,G28,38,2F,B12,12,20,R15,08,20,E31,23,2F*51
$PGLOR,2,SAT,7,3,E12,,20,E33,23,2F,B26,12,20,G31,37,2F,B25,38,2F,G12,09,20*45
$PGLOR,2,SAT,7,4,B34,21,23,E10,08,20,G11,14,20,B08,20,23,E05,08,20,E25,38,2F*46
$PGLOR,2,SAT,7,5,B38,08,30,R19,,20,E03,32,2F,G32,16,21,G18,08,20,R07,35,2F*38
$PGLOR,2,SAT,7,6,G26,33,2F,G20,,20,R09,27,27,R24,16,27,E26,10,20,B11,12,20*4F
$PGLOR,2,SAT,7,7,E11,08,20,R14,10,20,R08,21,23,R06,,20,B10,,20*4A
$PGLOR,2,SVC,GPS,0,3,1,10,025,CLIN,CLIN,028,SKUS,SKUS,029,SKUS,SKUS,031,SKUS,SKUS*6D
$PGLOR,2,SVC,GPS,0,3,2,10,011,CLIN,CLIN,012,CLIN,CLIN,018,RLPR,DOPE,032,CLIN,CLIN*63
$PGLOR,2,SVC,GPS,0,3,3,10,020,SKUS,SKUS,026,CLIN,CLIN*6D
$PGLOR,2,SVC,GLO,0,3,1,11,056,SKUS,SKUS,058,SKUS,SKPR,059,CLIN,CLIN,063,CLIN,CLIN*6B
$PGLOR,2,SVC,GLO,0,3,2,11,057,CLIN,CLIN,061,SKUS,SKUS,062,SKUS,DOPE,064,SKUS,SKPR*6C
$PGLOR,2,SVC,GLO,0,3,3,11,052,CLIN,CLIN,055,RLPR,DOPE,065,CLIN,CLIN*70
$PGLOR,2,SVC,BDS,0,3,1,10,087,CLIN,CLIN,099,CLIN,CLIN,101,CLIN,CLIN,119,CLIN,CLIN*7E
$PGLOR,2,SVC,BDS,0,3,2,10,083,SKUS,SKUS,100,SKPR,SKPR,109,SKPR,SKPR,113,CLIN,CLIN*7A
$PGLOR,2,SVC,BDS,0,3,3,10,085,CLIN,CLIN,086,CLIN,CLIN*79
$PGLOR,2,SVC,GAL,0,3,1,10,150,SKPR,SKPR,162,SKUS,SKPR,169,CLIN,CLIN,171,SKUS,SKPR*6F
$PGLOR,2,SVC,GAL,0,3,2,10,141,CLIN,CLIN,143,CLIN,CLIN,148,SKUS,SKUS,163,SKUS,SKUS*6F
$PGLOR,2,SVC,GAL,0,3,3,10,149,CLIN,CLIN,164,CLIN,CLIN*6A
$PGLOR,2,SIO,TxERR,0,RxERR,0,TxCNT,934,RxCNT,15208,MLFRMPKT,0,DTMS,1002,DTIN,24,50,DTOUT,14,948,HATMD,132*15
$PGLOR,2,HLA,140159.00,L,,Al,,A,,H,,,M,1,Ac,0,Gr,0,S,,,Sx,,,T,1,Tr,,Mn,,Ap,,Ta,0,,,Aa,1,Ga,1,*12
$PGLOR,3,CTX,140159.00,E,2,0,,,V,1,0,S,,,*73
$PGLOR,1,LSQ,140159.00,,,,,,,,,,,,,,,,00,,*33
$PGLOR,0,PPS,020224,140159.000,010181,215842.989,000.100,1,0,1,*11
$PGLOR,3,AGC,G,31.8,R,47.3,B,47.9,E5A,,AL1,21.6,AL5,,LTE,,PM1,,PM5,*0E
$PSSGR,GSA,A,3,25,26,28,31,,,,,,,,,2.8,2.2,1.8,1,1*44
$PSSGR,GSA,A,3,,,,,,,,,,,,,2.8,2.2,1.8,1,8*46
$PSSGR,GSA,A,3,,,,,,,,,,,,,2.8,2.2,1.8,1,9*47
$PSSGR,GSA,A,3,71,73,80,81,88,,,,,,,,2.8,2.2,1.8,2,1*4F
$PSSGR,GSA,A,3,,,,,,,,,,,,,2.8,2.2,1.8,5,1*4B
$PSSGR,GSA,A,3,,,,,,,,,,,,,2.8,2.2,1.8,5,8*42
$PSSGR,GSA,A,3,,,,,,,,,,,,,2.8,2.2,1.8,5,9*43
$PSSGR,GSA,A,3,225,,,,,,,,,,,,2.8,2.2,1.8,4,1*7F
$PSSGR,GSA,A,3,,,,,,,,,,,,,2.8,2.2,1.8,4,5*4E
$PSSGR,GSA,A,3,,,,,,,,,,,,,2.8,2.2,1.8,4,3*48
$PSSGR,GSA,A,3,103,125,131,133,,,,,,,,,2.8,2.2,1.8,3,7*4D
$PSSGR,GSA,A,3,,,,,,,,,,,,,2.8,2.2,1.8,3,1*4D
$GPGSV,3,1,10,29,78,232,23,25,67,081,24,28,57,286,42,31,34,309,41*7D
$GPGSV,3,2,10,12,32,093,13,11,25,048,18,32,13,234,20,18,12,180,12*75
$GPGSV,3,3,10,26,11,290,37,20,09,076,*79
$GLGSV,3,1,11,80,61,333,42,81,60,051,27,82,59,177,17,79,54,106,12*69
$GLGSV,3,2,11,83,17,195,,71,12,315,39,73,09,311,31,88,09,029,20*60
$GLGSV,3,3,11,78,05,123,14,72,05,000,25,70,03,270,*5C
$BDGSV,3,1,10,224,86,203,14,244,74,148,24,212,55,192,16,226,35,133,16*65
$BDGSV,3,2,10,225,33,306,42,234,27,210,25,208,23,070,24,238,20,056,12*6B
$BDGSV,3,3,10,211,06,212,16,210,03,074,*68
$GAGSV,3,1,10,124,72,321,29,131,48,091,27,112,43,144,,133,41,064,27*67
$GAGSV,3,2,10,110,27,168,12,105,21,254,12,125,21,289,42,103,17,307,36*63
$GAGSV,3,3,10,126,07,029,14,111,06,185,12*6D
$GPGSA,A,3,25,26,28,31,,,,,,,,,2.8,2.2,1.8*3A
$GPGSA,A,3,,,,,,,,,,,,,2.8,2.2,1.8,8*25
$GPGSA,A,3,,,,,,,,,,,,,2.8,2.2,1.8,9*24
$QZGSA,A,3,,,,,,,,,,,,,2.8,2.2,1.8*2D
$QZGSA,A,3,,,,,,,,,,,,,2.8,2.2,1.8,8*39
$QZGSA,A,3,,,,,,,,,,,,,2.8,2.2,1.8,9*38
$BDGSA,A,3,225,,,,,,,,,,,,2.8,2.2,1.8*15
$BDGSA,A,3,,,,,,,,,,,,,2.8,2.2,1.8,5*39
$BDGSA,A,3,,,,,,,,,,,,,2.8,2.2,1.8,3*3F
$GAGSA,A,3,103,125,131,133,,,,,,,,,2.8,2.2,1.8*26
$GAGSA,A,3,,,,,,,,,,,,,2.8,2.2,1.8,1*3D
$GNGSA,A,3,25,26,28,31,,,,,,,,,2.8,2.2,1.8*24
$GNGSA,A,3,71,73,80,81,88,,,,,,,,2.8,2.2,1.8*2C
$PGLOR,1,FIX,1.0,1.0*20
$GPRMC,140159.00,A,4530.201613,N,00913.478069,E,000.0,,020224,,,A*74
$PGLOR,SPL,39240302150159.9,POS,20240202140159.000,45.503360,9.224634,12,12,0,192,11,1.100000*6E
$GPGGA,140200.00,4530.201240,N,00913.478031,E,1,14,1.2,143.2,M,48.1,M,,*61
$PGLOR,1,UNC,140200.00,0.038,11.6,11.3,20.00,180.00,15.8,7.3,91.6*19
$PGLOR,2,SAT,7,1,B24,08,20,G29,19,23,B44,19,33,E24,25,23,G25,19,2F,R16,38,2F*26
$PGLOR,2,SAT,7,2,R17,24,2F,R18,13,20,G28,38,2F,B12,,20,R15,07,20,E31,23,2F*5A
$PGLOR,2,SAT,7,3,E12,,20,E33,23,2F,B26,07,20,G31,37,2F,B25,38,2F,G12,08,20*40
$PGLOR,2,SAT,7,4,B34,21,23,E10,08,20,G11,14,20,B08,19,23,E05,07,20,E25,38,2F*43
$PGLOR,2,SAT,7,5,B38,12,30,R19,,20,E03,33,2F,G32,16,20,G18,07,20,R07,34,2F*3D
$PGLOR,2,SAT,7,6,G26,33,2F,G20,,20,R09,27,27,R24,18,27,E26,09,20,B11,12,20*49
$PGLOR,2,SAT,7,7,E11,07,20,R14,09,20,R08,20,23,R06,,20,B10,,20*4C
$PGLOR,2,SVC,GPS,0,3,1,10,025,SKPR,SKPR,028,SKUS,SKUS,029,SKUS,SKUS,031,SKUS,SKUS*6D
$PGLOR,2,SVC,GPS,0,3,2,10,011,CLIN,CLIN,012,CLIN,CLIN,018,RLPR,DOPE,032,CLIN,CLIN*63
$PGLOR,2,SVC,GPS,0,3,3,10,020,SKUS,SKUS,026,CLIN,CLIN*6D
$PGLOR,2,SVC,GLO,0,3,1,11,056,SKUS,SKUS,058,SKUS,SKUS,059,CLIN,CLIN,063,CLIN,CLIN*6F
$PGLOR,2,SVC,GLO,0,3,2,11,057,CLIN,CLIN,061,SKUS,SKUS,062,SKUS,DOPE,064,SKUS,SKPR*6C
$PGLOR,2,SVC,GLO,0,3,3,11,052,CLIN,CLIN,055,RLPR,DOPE,065,CLIN,CLIN*70
$PGLOR,2,SVC,BDS,0,3,1,10,087,CLIN,CLIN,099,CLIN,CLIN,101,CLIN,CLIN,119,CLIN,CLIN*7E
$PGLOR,2,SVC,BDS,0,3,2,10,083,SKUS,SKUS,100,SKPR,SKPR,109,SKPR,SKPR,113,CLIN,CLIN*7A
$PGLOR,2,SVC,BDS,0,3,3,10,085,CLIN,CLIN,086,CLIN,CLIN*79
$PGLOR,2,SVC,GAL,0,3,1,10,150,SKPR,SKPR,162,SKUS,SKUS,169,CLIN,CLIN,171,SKUS,SKUS*6F
$PGLOR,2,SVC,GAL,0,3,2,10,141,CLIN,CLIN,143,CLIN,CLIN,148,SKUS,SKUS,163,SKUS,SKUS*6F
$PGLOR,2,SVC,GAL,0,3,3,10,149,CLIN,CLIN,164,CLIN,CLIN*6A
$PGLOR,2,SIO,TxERR,0,RxERR,0,TxCNT,847,RxCNT,15596,MLFRMPKT,0,DTMS,997,DTIN,31,52,DTOUT,13,949,HATMD,129*2E
$PGLOR,2,HLA,140200.00,L,,Al,,A,,H,,,M,0,Ac,0,Gr,0,S,,,Sx,,,T,0,Tr,,Mn,,Ap,,Ta,0,,,Aa,1,Ga,1,*1D
$PGLOR,3,CTX,140200.00,E,2,0,,,V,1,0,S,,,*7C
$PGLOR,1,LSQ,140200.00,,,,,,,,,,,,,,,,00,,*3C
$PGLOR,0,PPS,020224,140200.000,010181,215843.989,000.100,1,0,1,*1F
$PGLOR,3,AGC,G,31.9,R,47.6,B,48.1,E5A,,AL1,21.6,AL5,,LTE,,PM1,,PM5,*0D
$PSSGR,GSA,A,3,25,26,28,31,,,,,,,,,2.8,2.2,1.8,1,1*44
$PSSGR,GSA,A,3,,,,,,,,,,,,,2.8,2.2,1.8,1,8*46
$PSSGR,GSA,A,3,,,,,,,,,,,,,2.8,2.2,1.8,1,9*47
$PSSGR,GSA,A,3,71,73,80,81,88,,,,,,,,2.8,2.2,1.8,2,1*4F
$PSSGR,GSA,A,3,,,,,,,,,,,,,2.8,2.2,1.8,5,1*4B
$PSSGR,GSA,A,3,,,,,,,,,,,,,2.8,2.2,1.8,5,8*42
$PSSGR,GSA,A,3,,,,,,,,,,,,,2.8,2.2,1.8,5,9*43
$PSSGR,GSA,A,3,225,,,,,,,,,,,,2.8,2.2,1.8,4,1*7F
$PSSGR,GSA,A,3,,,,,,,,,,,,,2.8,2.2,1.8,4,5*4E
$PSSGR,GSA,A,3,,,,,,,,,,,,,2.8,2.2,1.8,4,3*48
$PSSGR,GSA,A,3,103,125,131,133,,,,,,,,,2.8,2.2,1.8,3,7*4D
$PSSGR,GSA,A,3,,,,,,,,,,,,,2.8,2.2,1.8,3,1*4D
$GPGSV,3,1,10,29,78,232,23,25,67,081,23,28,57,286,42,31,34,309,41*7A
$GPGSV,3,2,10,12,32,093,12,11,25,048,18,32,13,234,20,18,12,180,11*77
$GPGSV,3,3,10,26,11,290,37,20,09,076,*79
$GLGSV,3,1,11,80,61,333,42,81,60,051,28,82,59,177,17,79,54,106,11*65
$GLGSV,3,2,11,83,17,195,,71,12,315,38,73,09,311,31,88,09,029,22*63
$GLGSV,3,3,11,78,05,123,13,72,05,000,24,70,03,270,*5A
$BDGSV,3,1,10,224,86,203,12,244,74,148,23,212,55,192,,226,35,133,11*64
$BDGSV,3,2,10,225,33,306,42,234,27,210,25,208,23,070,23,238,20,056,16*68
$BDGSV,3,3,10,211,06,212,16,210,03,074,*68
$GAGSV,3,1,10,124,72,321,29,131,48,091,27,112,43,144,,133,41,064,27*67
$GAGSV,3,2,10,110,27,168,12,105,21,254,11,125,21,289,42,103,17,307,37*61
$GAGSV,3,3,10,126,07,029,13,111,06,185,11*69
$GPGSA,A,3,25,26,28,31,,,,,,,,,2.8,2.2,1.8*3A
$GPGSA,A,3,,,,,,,,,,,,,2.8,2.2,1.8,8*25
$GPGSA,A,3,,,,,,,,,,,,,2.8,2.2,1.8,9*24
$QZGSA,A,3,,,,,,,,,,,,,2.8,2.2,1.8*2D
$QZGSA,A,3,,,,,,,,,,,,,2.8,2.2,1.8,8*39
$QZGSA,A,3,,,,,,,,,,,,,2.8,2.2,1.8,9*38
$BDGSA,A,3,225,,,,,,,,,,,,2.8,2.2,1.8*15
$BDGSA,A,3,,,,,,,,,,,,,2.8,2.2,1.8,5*39
$BDGSA,A,3,,,,,,,,,,,,,2.8,2.2,1.8,3*3F
$GAGSA,A,3,103,125,131,133,,,,,,,,,2.8,2.2,1.8*26
$GAGSA,A,3,,,,,,,,,,,,,2.8,2.2,1.8,1*3D
$GNGSA,A,3,25,26,28,31,,,,,,,,,2.8,2.2,1.8*24
$GNGSA,A,3,71,73,80,81,88,,,,,,,,2.8,2.2,1.8*2C
$PGLOR,1,FIX,1.0,1.0*20
$GPRMC,140200.00,A,4530.201240,N,00913.478031,E,000.0,,020224,,,A*74
$PGLOR,SPL,39240302150200.9,POS,20240202140200.000,45.503354,9.224634,12,12,0,191,11,1.100000*6A
$GPGGA,140201.00,4530.200981,N,00913.477830,E,1,13,1.1,143.0,M,48.1,M,,*67
$PGLOR,1,UNC,140201.00,0.038,11.5,11.1,20.00,180.00,15.6,7.3,92.0*12
$PGLOR,2,SAT,7,1,B24,,20,G29,20,23,B44,19,33,E24,25,23,G25,17,2F,R16,38,2F*2A
$PGLOR,2,SAT,7,2,R17,24,2F,R18,12,20,G28,38,2F,B12,13,20,R15,10,20,E31,23,2F*5F
$PGLOR,2,SAT,7,3,E12,,20,E33,22,21,B26,09,20,G31,37,2F,B25,38,2F,G12,08,20*38
$PGLOR,2,SAT,7,4,B34,21,23,E10,07,20,G11,14,20,B08,18,23,E05,,20,E25,37,2F*45
$PGLOR,2,SAT,7,5,B38,,30,R19,,20,E03,33,2F,G32,18,20,G18,,20,R07,35,2F*36
$PGLOR,2,SAT,7,6,G26,33,2F,G20,08,20,R09,25,2F,R24,17,2F,E26,09,20,B11,15,20*4B
$PGLOR,2,SAT,7,7,E11,,20,R14,08,20,R08,20,23,R06,,20,B10,,20*4A
$PGLOR,2,SVC,GPS,0,3,1,10,025,SKPR,SKPR,028,SKUS,SKUS,029,SKUS,SKUS,031,SKUS,SKUS*6D
$PGLOR,2,SVC,GPS,0,3,2,10,011,CLIN,CLIN,012,CLIN,CLIN,018,CLIN,CLIN,032,CLIN,CLIN*61
$PGLOR,2,SVC,GPS,0,3,3,10,020,SKUS,SKUS,026,CLIN,CLIN*6D
$PGLOR,2,SVC,GLO,0,3,1,11,056,SKUS,SKUS,058,SKUS,SKUS,059,CLIN,CLIN,063,CLIN,CLIN*6F
$PGLOR,2,SVC,GLO,0,3,2,11,057,CLIN,CLIN,061,SKUS,SKUS,062,SKUS,DOPE,064,SKUS,SKPR*6C
$PGLOR,2,SVC,GLO,0,3,3,11,052,CLIN,CLIN,055,RLPR,DOPE,065,CLIN,CLIN*70
$PGLOR,2,SVC,BDS,0,3,1,10,087,CLIN,CLIN,099,SKPR,SKPR,101,CLIN,CLIN,119,CLIN,CLIN*7E
$PGLOR,2,SVC,BDS,0,3,2,10,083,SKUS,SKUS,100,SKPR,SKPR,109,SKPR,SKPR,113,CLIN,CLIN*7A
$PGLOR,2,SVC,BDS,0,3,3,10,085,CLIN,CLIN,086,CLIN,CLIN*79
$PGLOR,2,SVC,GAL,0,3,1,10,150,SKPR,SKPR,162,SKUS,SKUS,169,CLIN,CLIN,171,SKUS,SKUS*6F
$PGLOR,2,SVC,GAL,0,3,2,10,141,CLIN,CLIN,143,CLIN,CLIN,148,SKUS,SKUS,163,SKUS,SKUS*6F
$PGLOR,2,SVC,GAL,0,3,3,10,149,CLIN,CLIN,164,CLIN,CLIN*6A
$PGLOR,2,SIO,TxERR,0,RxERR,0,TxCNT,936,RxCNT,15360,MLFRMPKT,0,DTMS,998,DTIN,22,39,DTOUT,13,959,HATMD,127*29
$PGLOR,2,HLA,140201.00,L,,Al,,A,,H,,,M,0,Ac,0,Gr,0,S,,,Sx,,,T,0,Tr,,Mn,,Ap,,Ta,0,,,Aa,1,Ga,1,*1C
$PGLOR,3,CTX,140201.00,E,2,0,,,V,1,0,S,,,*7D
$PGLOR,1,LSQ,140201.00,,,,,,,,,,,,,,,,00,,*3D
$PGLOR,0,PPS,020224,140201.000,010181,215844.989,000.100,1,0,1,*19
$PGLOR,3,AGC,G,32.9,R,47.6,B,48.1,E5A,,AL1,21.6,AL5,,LTE,,PM1,,PM5,*0E
$PSSGR,GSA,A,3,25,26,28,31,,,,,,,,,2.8,2.2,1.8,1,1*44
$PSSGR,GSA,A,3,,,,,,,,,,,,,2.8,2.2,1.8,1,8*46
$PSSGR,GSA,A,3,,,,,,,,,,,,,2.8,2.2,1.8,1,9*47
$PSSGR,GSA,A,3,71,73,80,81,88,,,,,,,,2.8,2.2,1.8,2,1*4F
$PSSGR,GSA,A,3,,,,,,,,,,,,,2.8,2.2,1.8,5,1*4B
$PSSGR,GSA,A,3,,,,,,,,,,,,,2.8,2.2,1.8,5,8*42
$PSSGR,GSA,A,3,,,,,,,,,,,,,2.8,2.2,1.8,5,9*43
$PSSGR,GSA,A,3,225,,,,,,,,,,,,2.8,2.2,1.8,4,1*7F
$PSSGR,GSA,A,3,,,,,,,,,,,,,2.8,2.2,1.8,4,5*4E
$PSSGR,GSA,A,3,,,,,,,,,,,,,2.8,2.2,1.8,4,3*48
$PSSGR,GSA,A,3,103,125,131,,,,,,,,,,2.8,2.2,1.8,3,7*7C
$PSSGR,GSA,A,3,,,,,,,,,,,,,2.8,2.2,1.8,3,1*4D
$GPGSV,3,1,10,29,78,232,24,25,67,081,21,28,57,286,42,31,34,309,41*7F
$GPGSV,3,2,10,12,32,093,12,11,25,048,18,32,13,234,22,18,12,180,*75
$GPGSV,3,3,10,26,11,290,37,20,09,076,12*7A
$GLGSV,3,1,11,80,61,333,42,81,60,051,28,82,59,177,16,79,54,106,14*61
$GLGSV,3,2,11,83,17,195,,71,12,315,39,73,09,311,29,88,09,029,21*68
$GLGSV,3,3,11,78,05,123,12,72,05,000,24,70,03,270,*5B
$BDGSV,3,1,10,224,86,203,,244,74,148,23,212,55,192,17,226,35,133,13*63
$BDGSV,3,2,10,225,33,306,42,234,27,210,25,208,23,070,22,238,20,056,*6E
$BDGSV,3,3,10,211,06,212,19,210,03,074,*67
$GAGSV,3,1,10,124,72,321,29,131,48,091,27,112,43,144,,133,41,064,26*66
$GAGSV,3,2,10,110,27,168,11,105,21,254,,125,21,289,41,103,17,307,37*61
$GAGSV,3,3,10,126,07,029,13,111,06,185,*69
$GPGSA,A,3,25,26,28,31,,,,,,,,,2.8,2.2,1.8*3A
$GPGSA,A,3,,,,,,,,,,,,,2.8,2.2,1.8,8*25
$GPGSA,A,3,,,,,,,,,,,,,2.8,2.2,1.8,9*24
$QZGSA,A,3,,,,,,,,,,,,,2.8,2.2,1.8*2D
$QZGSA,A,3,,,,,,,,,,,,,2.8,2.2,1.8,8*39
$QZGSA,A,3,,,,,,,,,,,,,2.8,2.2,1.8,9*38
$BDGSA,A,3,225,,,,,,,,,,,,2.8,2.2,1.8*15
$BDGSA,A,3,,,,,,,,,,,,,2.8,2.2,1.8,5*39
$BDGSA,A,3,,,,,,,,,,,,,2.8,2.2,1.8,3*3F
$GAGSA,A,3,103,125,131,,,,,,,,,,2.8,2.2,1.8*17
$GAGSA,A,3,,,,,,,,,,,,,2.8,2.2,1.8,1*3D
$GNGSA,A,3,25,26,28,31,,,,,,,,,2.8,2.2,1.8*24
$GNGSA,A,3,71,73,80,81,88,,,,,,,,2.8,2.2,1.8*2C
$PGLOR,1,FIX,1.0,1.0*20
$GPRMC,140201.00,A,4530.200981,N,00913.477830,E,000.0,,020224,,,A*74
$PGLOR,SPL,39240302150201.9,POS,20240202140201.000,45.503350,9.224631,11,11,0,191,11,1.100000*6B
$GPGGA,140202.00,4530.200752,N,00913.477766,E,1,12,1.1,142.9,M,48.1,M,,*61
$PGLOR,1,UNC,140202.00,0.037,11.4,11.0,20.00,107.00,15.4,7.4,92.3*17
$PGLOR,2,SAT,7,1,B24,,20,G29,20,23,B44,16,33,E24,27,23,G25,18,27,R16,38,2F*59
$PGLOR,2,SAT,7,2,R17,24,23,R18,11,20,G28,38,2F,B12,12,20,R15,11,20,E31,21,2F*2B
$PGLOR,2,SAT,7,3,E12,,20,E33,21,21,B26,,20,G31,37,27,B25,37,2F,G12,09,20*4D
$PGLOR,2,SAT,7,4,B34,21,23,E10,,20,G11,14,20,B08,18,23,E05,,20,E25,37,2F*42
$PGLOR,2,SAT,7,5,B38,,30,R19,07,20,E03,33,2F,G32,19,20,G18,,20,R07,35,2F*30
$PGLOR,2,SAT,7,6,G26,33,27,G20,08,20,R09,24,2F,R24,17,27,E26,09,20,B11,14,20*4B
$PGLOR,2,SAT,7,7,E11,,20,R14,,20,R08,20,23,R06,,20,B10,,20*42
$PGLOR,2,SVC,GPS,0,3,1,10,025,SKPR,SKPR,028,SKUS,SKUS,029,SKUS,SKUS,031,SKUS,SKUS*6D
$PGLOR,2,SVC,GPS,0,3,2,10,011,CLIN,CLIN,012,CLIN,CLIN,018,CLIN,CLIN,032,CLIN,CLIN*61
$PGLOR,2,SVC,GPS,0,3,3,10,020,SKUS,SKUS,026,CLIN,CLIN*6D
$PGLOR,2,SVC,GLO,0,3,1,11,056,SKUS,SKUS,058,SKUS,SKUS,059,CLIN,CLIN,063,CLIN,CLIN*6F
$PGLOR,2,SVC,GLO,0,3,2,11,057,CLIN,CLIN,061,SKUS,SKUS,062,SKUS,SKUS,064,SKUS,SKUS*68
$PGLOR,2,SVC,GLO,0,3,3,11,052,CLIN,CLIN,055,RLPR,DOPE,065,CLIN,CLIN*70
$PGLOR,2,SVC,BDS,0,3,1,10,087,CLIN,CLIN,099,SKPR,SKPR,101,CLIN,CLIN,119,CLIN,CLIN*7E
$PGLOR,2,SVC,BDS,0,3,2,10,083,SKUS,SKUS,100,SKPR,SKPR,109,SKPR,SKPR,113,CLIN,CLIN*7A
$PGLOR,2,SVC,BDS,0,3,3,10,085,CLIN,CLIN,086,CLIN,CLIN*79
$PGLOR,2,SVC,GAL,0,3,1,10,150,SKPR,DOPE,162,SKUS,SKUS,169,CLIN,CLIN,171,RLPR,DOPE*69
$PGLOR,2,SVC,GAL,0,3,2,10,141,CLIN,CLIN,143,CLIN,CLIN,148,SKUS,SKUS,163,SKUS,SKUS*6F
$PGLOR,2,SVC,GAL,0,3,3,10,149,CLIN,CLIN,164,CLIN,CLIN*6A
$PGLOR,2,SIO,TxERR,0,RxERR,0,TxCNT,863,RxCNT,11132,MLFRMPKT,0,DTMS,948,DTIN,18,42,DTOUT,14,911,HATMD,75*1C
$PGLOR,2,HLA,140202.00,L,,Al,,A,,H,,,M,0,Ac,0,Gr,0,S,,,Sx,,,T,0,Tr,,Mn,,Ap,,Ta,0,,,Aa,1,Ga,1,*1F
$PGLOR,3,CTX,140202.00,E,2,0,,,V,1,0,S,,,*7E
$PGLOR,1,LSQ,140202.00,,,,,,,,,,,,,,,,00,,*3E
$PGLOR,0,PPS,020224,140202.000,010181,215845.989,000.100,1,0,1,*1B
$PGLOR,3,AGC,G,32.3,R,47.3,B,47.4,E5A,,AL1,21.6,AL5,,LTE,,PM1,,PM5,*0B
$PSSGR,GSA,A,3,25,26,28,31,,,,,,,,,2.4,1.8,1.6,1,1*4F
$PSSGR,GSA,A,3,,,,,,,,,,,,,2.4,1.8,1.6,1,8*4D
$PSSGR,GSA,A,3,,,,,,,,,,,,,2.4,1.8,1.6,1,9*4C
$PSSGR,GSA,A,3,71,73,80,88,,,,,,,,,2.4,1.8,1.6,2,1*4D
$PSSGR,GSA,A,3,,,,,,,,,,,,,2.4,1.8,1.6,5,1*40
$PSSGR,GSA,A,3,,,,,,,,,,,,,2.4,1.8,1.6,5,8*49
$PSSGR,GSA,A,3,,,,,,,,,,,,,2.4,1.8,1.6,5,9*48
$PSSGR,GSA,A,3,225,,,,,,,,,,,,2.4,1.8,1.6,4,1*74
$PSSGR,GSA,A,3,,,,,,,,,,,,,2.4,1.8,1.6,4,5*45
$PSSGR,GSA,A,3,,,,,,,,,,,,,2.4,1.8,1.6,4,3*43
$PSSGR,GSA,A,3,103,125,131,,,,,,,,,,2.4,1.8,1.6,3,7*77
$PSSGR,GSA,A,3,,,,,,,,,,,,,2.4,1.8,1.6,3,1*46
$GPGSV,3,1,10,29,78,232,24,25,67,081,22,28,57,286,42,31,34,309,41*7C
$GPGSV,3,2,10,12,32,093,13,11,25,048,18,32,13,234,23,18,12,180,*75
$GPGSV,3,3,10,26,11,290,37,20,09,076,12*7A
$GLGSV,3,1,11,80,61,333,42,81,60,051,28,82,59,176,15,79,54,106,15*62
$GLGSV,3,2,11,83,17,195,11,71,12,315,39,73,09,311,28,88,09,029,21*69
$GLGSV,3,3,11,78,05,123,,72,05,000,24,70,03,270,*58
$BDGSV,3,1,10,224,86,202,,244,74,148,20,212,56,192,16,226,35,133,*61
$BDGSV,3,2,10,225,33,306,41,234,27,210,25,208,23,070,22,238,20,056,*6D
$BDGSV,3,3,10,211,06,212,18,210,03,074,*66
$GAGSV,3,1,10,124,72,321,31,131,48,091,25,112,43,144,,133,41,064,25*6E
$GAGSV,3,2,10,110,27,168,,105,21,254,,125,21,289,41,103,17,307,37*61
$GAGSV,3,3,10,126,07,029,13,111,06,185,*69
$GPGSA,A,3,25,26,28,31,,,,,,,,,2.4,1.8,1.6*31
$GPGSA,A,3,,,,,,,,,,,,,2.4,1.8,1.6,8*2E
$GPGSA,A,3,,,,,,,,,,,,,2.4,1.8,1.6,9*2F
$QZGSA,A,3,,,,,,,,,,,,,2.4,1.8,1.6*26
$QZGSA,A,3,,,,,,,,,,,,,2.4,1.8,1.6,8*32
$QZGSA,A,3,,,,,,,,,,,,,2.4,1.8,1.6,9*33
$BDGSA,A,3,225,,,,,,,,,,,,2.4,1.8,1.6*1E
$BDGSA,A,3,,,,,,,,,,,,,2.4,1.8,1.6,5*32
$BDGSA,A,3,,,,,,,,,,,,,2.4,1.8,1.6,3*34
$GAGSA,A,3,103,125,131,,,,,,,,,,2.4,1.8,1.6*1C
$GAGSA,A,3,,,,,,,,,,,,,2.4,1.8,1.6,1*36
$GNGSA,A,3,25,26,28,31,,,,,,,,,2.4,1.8,1.6*2F
$GNGSA,A,3,71,73,80,88,,,,,,,,,2.4,1.8,1.6*2E
$PGLOR,1,FIX,1.0,1.0*20
$GPRMC,140202.00,A,4530.200752,N,00913.477766,E,000.0,,020224,,,A*7B
$PGLOR,SPL,39240302150202.8,POS,20240202140202.000,45.503346,9.224629,11,11,0,191,11,1.100000*64
$GPGGA,140203.00,4530.200359,N,00913.477624,E,1,14,1.1,142.3,M,48.1,M,,*64
$PGLOR,1,UNC,140203.00,0.037,11.3,10.9,20.00,58.93,15.2,7.5,91.8*27
$PGLOR,2,SAT,8,1,B24,,20,G29,20,23,B44,17,33,E24,27,2F,G25,18,2F,R16,39,2F*52
$PGLOR,2,SAT,8,2,R17,24,2F,R18,10,20,G28,37,2F,B12,13,20,R15,12,20,E31,21,21*2A
$PGLOR,2,SAT,8,3,E12,,20,E33,21,2F,B26,09,20,G31,37,27,B25,37,2F,G12,09,20*3C
$PGLOR,2,SAT,8,4,B34,22,23,E10,,20,G11,14,20,B08,18,23,E05,07,20,E25,37,2F*49
$PGLOR,2,SAT,8,5,B38,12,30,R19,,20,E03,33,2F,G32,19,23,G18,,20,R07,34,2F*39
$PGLOR,2,SAT,8,6,G26,32,27,G20,,20,R09,22,2F,R24,17,2F,E26,08,20,B11,13,20*3C
$PGLOR,2,SAT,8,7,E11,,20,R14,,20,R08,20,23,R06,,20,B10,,20,B05,,20*24
$PGLOR,2,SAT,8,8,G06,,20,B02,,20,B32,,20,B60,,00*36
$PGLOR,2,SVC,GPS,0,3,1,11,025,SKPR,SKPR,028,SKUS,SKPR,029,SKUS,SKUS,031,SKUS,SKPR*6C
$PGLOR,2,SVC,GPS,0,3,2,11,011,CLIN,CLIN,012,CLIN,CLIN,018,CLIN,CLIN,032,CLIN,CLIN*60
$PGLOR,2,SVC,GPS,0,3,3,11,006,SKUS,SKPR,020,CLIN,CLIN,026,CLIN,CLIN*72
$PGLOR,2,SVC,GLO,0,3,1,11,056,SKUS,SKUS,058,SKPR,SKPR,059,CLIN,CLIN,063,CLIN,CLIN*6F
$PGLOR,2,SVC,GLO,0,3,2,11,057,CLIN,CLIN,061,SKUS,SKUS,062,SKUS,SKUS,064,SKUS,SKPR*6C
$PGLOR,2,SVC,GLO,0,3,3,11,052,CLIN,CLIN,055,RLPR,DOPE,065,CLIN,CLIN*70
$PGLOR,2,SVC,BDS,0,4,1,14,087,CLIN,CLIN,099,SKPR,SKPR,101,CLIN,CLIN,119,CLIN,CLIN*7D
$PGLOR,2,SVC,BDS,0,4,2,14,083,SKUS,SKUS,100,SKPR,SKPR,109,SKPR,SKPR,113,CLIN,CLIN*79
$PGLOR,2,SVC,BDS,0,4,3,14,077,CLIN,CLIN,080,CLIN,CLIN,085,CLIN,CLIN,086,CLIN,CLIN*72
$PGLOR,2,SVC,BDS,0,4,4,14,107,CLIN,CLIN,135,CLIN,CLIN*7F
$PGLOR,2,SVC,GAL,0,3,1,10,150,SKPR,SKPR,162,SKUS,SKUS,169,CLIN,CLIN,171,RLPR,DOPE*6D
$PGLOR,2,SVC,GAL,0,3,2,10,141,CLIN,CLIN,143,CLIN,CLIN,148,SKUS,SKUS,163,SKUS,SKUS*6F
$PGLOR,2,SVC,GAL,0,3,3,10,149,CLIN,CLIN,164,CLIN,CLIN*6A
$PGLOR,2,SIO,TxERR,0,RxERR,0,TxCNT,931,RxCNT,10892,MLFRMPKT,0,DTMS,1001,DTIN,21,47,DTOUT,15,953,HATMD,76*26
$PGLOR,2,HLA,140203.00,L,,Al,,A,,H,,,M,1,Ac,0,Gr,0,S,,,Sx,,,T,0,Tr,,Mn,,Ap,,Ta,0,,,Aa,1,Ga,1,*1F
$PGLOR,3,CTX,140203.00,E,2,0,,,V,1,0,S,,,*7F
$PGLOR,1,LSQ,140203.00,,,,,,,,,,,,,,,,00,,*3F
$PGLOR,0,PPS,020224,140203.000,010181,215846.989,000.100,1,0,1,*19
$PGLOR,3,AGC,G,32.2,R,48.0,B,47.8,E5A,,AL1,21.6,AL5,,LTE,,PM1,,PM5,*0A
$PSSGR,GSA,A,3,25,26,28,31,,,,,,,,,2.9,2.4,1.8,1,1*43
$PSSGR,GSA,A,3,,,,,,,,,,,,,2.9,2.4,1.8,1,8*41
$PSSGR,GSA,A,3,,,,,,,,,,,,,2.9,2.4,1.8,1,9*40
$PSSGR,GSA,A,3,71,73,80,81,88,,,,,,,,2.9,2.4,1.8,2,1*48
$PSSGR,GSA,A,3,,,,,,,,,,,,,2.9,2.4,1.8,5,1*4C
$PSSGR,GSA,A,3,,,,,,,,,,,,,2.9,2.4,1.8,5,8*45
$PSSGR,GSA,A,3,,,,,,,,,,,,,2.9,2.4,1.8,5,9*44
$PSSGR,GSA,A,3,225,,,,,,,,,,,,2.9,2.4,1.8,4,1*78
$PSSGR,GSA,A,3,,,,,,,,,,,,,2.9,2.4,1.8,4,5*49
$PSSGR,GSA,A,3,,,,,,,,,,,,,2.9,2.4,1.8,4,3*4F
$PSSGR,GSA,A,3,103,124,125,133,,,,,,,,,2.9,2.4,1.8,3,7*4E
$PSSGR,GSA,A,3,,,,,,,,,,,,,2.9,2.4,1.8,3,1*4A
$GPGSV,3,1,11,29,78,232,24,25,67,081,22,28,57,286,41,31,34,309,41*7E
$GPGSV,3,2,11,12,32,093,13,11,25,048,18,32,13,234,23,18,12,180,*74
$GPGSV,3,3,11,26,11,290,36,20,09,076,,06,01,026,*4A
$GLGSV,3,1,11,80,61,333,43,81,60,051,28,82,59,176,14,79,54,106,16*61
$GLGSV,3,2,11,83,17,195,,71,12,315,38,73,09,311,26,88,09,029,21*66
$GLGSV,3,3,11,78,05,123,,72,05,000,24,70,03,270,*58
$BDGSV,4,1,14,224,86,203,,244,74,148,21,212,56,192,17,226,35,133,13*61
$BDGSV,4,2,14,225,33,306,41,234,27,210,26,208,23,070,22,238,20,056,16*6A
$BDGSV,4,3,14,211,06,212,17,210,03,074,,205,18,122,,202,01,101,*64
$BDGSV,4,4,14,232,00,340,,04,06,103,*59
$GAGSV,3,1,10,124,72,321,31,131,48,091,25,112,43,144,,133,41,064,25*6E
$GAGSV,3,2,10,110,27,168,,105,21,254,11,125,21,289,41,103,17,307,37*61
$GAGSV,3,3,10,126,07,029,12,111,06,185,*68
$GPGSA,A,3,25,26,28,31,,,,,,,,,2.9,2.4,1.8*3D
$GPGSA,A,3,,,,,,,,,,,,,2.9,2.4,1.8,8*22
$GPGSA,A,3,,,,,,,,,,,,,2.9,2.4,1.8,9*23
$QZGSA,A,3,,,,,,,,,,,,,2.9,2.4,1.8*2A
$QZGSA,A,3,,,,,,,,,,,,,2.9,2.4,1.8,8*3E
$QZGSA,A,3,,,,,,,,,,,,,2.9,2.4,1.8,9*3F
$BDGSA,A,3,225,,,,,,,,,,,,2.9,2.4,1.8*12
$BDGSA,A,3,,,,,,,,,,,,,2.9,2.4,1.8,5*3E
$BDGSA,A,3,,,,,,,,,,,,,2.9,2.4,1.8,3*38
$GAGSA,A,3,103,124,125,133,,,,,,,,,2.9,2.4,1.8*25
$GAGSA,A,3,,,,,,,,,,,,,2.9,2.4,1.8,1*3A
$GNGSA,A,3,25,26,28,31,,,,,,,,,2.9,2.4,1.8*23
$GNGSA,A,3,71,73,80,81,88,,,,,,,,2.9,2.4,1.8*2B
$PGLOR,1,FIX,1.0,1.0*20
$GPRMC,140203.00,A,4530.200359,N,00913.477624,E,000.0,,020224,,,A*72
$PGLOR,SPL,39240302150203.8,POS,20240202140203.000,45.503339,9.224627,11,11,0,190,11,1.100000*63
$GPGGA,140204.00,4530.200620,N,00913.477750,E,1,15,1.1,142.0,M,48.1,M,,*68
$PGLOR,1,UNC,140204.00,0.037,11.2,10.7,20.00,86.14,15.0,7.5,91.5*2C
$PGLOR,2,SAT,7,1,B24,10,20,G29,20,27,B44,18,33,E24,27,2F,G25,16,2F,R16,38,2F*58
$PGLOR,2,SAT,7,2,R17,24,27,R18,10,20,G28,38,2F,B12,12,20,R15,11,20,E31,22,21*5A
$PGLOR,2,SAT,7,3,E12,,20,E33,21,2F,B26,,20,G31,37,2F,B25,37,27,G12,09,20*3A
$PGLOR,2,SAT,7,4,B34,21,23,E10,,20,G11,13,20,B08,20,23,E05,,20,E25,36,2F*4F
$PGLOR,2,SAT,7,5,B38,,30,R19,,20,E03,33,2F,G32,21,23,G18,,20,R07,34,2F*3E
$PGLOR,2,SAT,7,6,G26,32,2F,G20,07,20,R09,21,2F,R24,17,2F,E26,07,20,B11,15,20*4F
$PGLOR,2,SAT,7,7,E11,,20,R14,,20,R08,19,23,R06,,20,B10,,20*48
$PGLOR,2,SVC,GPS,0,3,1,10,025,SKPR,SKPR,028,SKUS,SKUS,029,SKUS,SKUS,031,SKUS,SKPR*69
$PGLOR,2,SVC,GPS,0,3,2,10,011,CLIN,CLIN,012,CLIN,CLIN,018,SKPR,SKPR,032,CLIN,CLIN*61
$PGLOR,2,SVC,GPS,0,3,3,10,020,SKUS,SKPR,026,CLIN,CLIN*69
$PGLOR,2,SVC,GLO,0,3,1,11,056,SKUS,SKUS,058,SKUS,SKUS,059,CLIN,CLIN,063,CLIN,CLIN*6F
$PGLOR,2,SVC,GLO,0,3,2,11,057,CLIN,CLIN,061,SKUS,SKUS,062,SKUS,SKUS,064,SKUS,SKUS*68
$PGLOR,2,SVC,GLO,0,3,3,11,052,CLIN,CLIN,055,RLPR,DOPE,065,CLIN,CLIN*70
$PGLOR,2,SVC,BDS,0,3,1,10,087,CLIN,CLIN,099,SKPR,SKPR,101,CLIN,CLIN,119,CLIN,CLIN*7E
$PGLOR,2,SVC,BDS,0,3,2,10,083,SKUS,SKUS,100,SKPR,SKPR,109,SKPR,SKPR,113,CLIN,CLIN*7A
$PGLOR,2,SVC,BDS,0,3,3,10,085,CLIN,CLIN,086,CLIN,CLIN*79
$PGLOR,2,SVC,GAL,0,3,1,10,150,SKUS,SKUS,162,RLPR,DOPE,169,CLIN,CLIN,171,SKUS,SKUS*6D
$PGLOR,2,SVC,GAL,0,3,2,10,141,CLIN,CLIN,143,CLIN,CLIN,148,SKUS,SKUS,163,SKUS,SKUS*6F
$PGLOR,2,SVC,GAL,0,3,3,10,149,CLIN,CLIN,164,CLIN,CLIN*6A
$PGLOR,2,SIO,TxERR,0,RxERR,0,TxCNT,847,RxCNT,11308,MLFRMPKT,0,DTMS,1005,DTIN,20,40,DTOUT,13,962,HATMD,81*21
$PGLOR,2,HLA,140204.00,L,,Al,,A,,H,,,M,1,Ac,0,Gr,0,S,,,Sx,,,T,0,Tr,,Mn,,Ap,,Ta,0,,,Aa,1,Ga,1,*18
$PGLOR,3,CTX,140204.00,E,2,0,,,V,1,0,S,,,*78
$PGLOR,1,LSQ,140204.00,,,,,,,,,,,,,,,,00,,*38
$PGLOR,0,PPS,020224,140204.000,010181,215847.989,000.100,1,0,1,*1F
$PGLOR,3,AGC,G,32.5,R,47.2,B,48.1,E5A,,AL1,21.6,AL5,,LTE,,PM1,,PM5,*06
$PSSGR,GSA,A,3,25,26,28,29,31,,,,,,,,2.7,2.1,1.8,1,1*43
$PSSGR,GSA,A,3,,,,,,,,,,,,,2.7,2.1,1.8,1,8*4A
$PSSGR,GSA,A,3,,,,,,,,,,,,,2.7,2.1,1.8,1,9*4B
$PSSGR,GSA,A,3,71,73,80,81,88,,,,,,,,2.7,2.1,1.8,2,1*43
$PSSGR,GSA,A,3,,,,,,,,,,,,,2.7,2.1,1.8,5,1*47
$PSSGR,GSA,A,3,,,,,,,,,,,,,2.7,2.1,1.8,5,8*4E
$PSSGR,GSA,A,3,,,,,,,,,,,,,2.7,2.1,1.8,5,9*4F
$PSSGR,GSA,A,3,225,,,,,,,,,,,,2.7,2.1,1.8,4,1*73
$PSSGR,GSA,A,3,,,,,,,,,,,,,2.7,2.1,1.8,4,5*42
$PSSGR,GSA,A,3,,,,,,,,,,,,,2.7,2.1,1.8,4,3*44
$PSSGR,GSA,A,3,103,124,125,133,,,,,,,,,2.7,2.1,1.8,3,7*45
$PSSGR,GSA,A,3,,,,,,,,,,,,,2.7,2.1,1.8,3,1*41
$GPGSV,3,1,10,29,78,232,24,25,67,081,20,28,57,286,42,31,34,309,41*7E
$GPGSV,3,2,10,12,32,093,13,11,25,048,17,32,13,234,25,18,12,180,*7C
$GPGSV,3,3,10,26,11,290,36,20,09,076,11*78
$GLGSV,3,1,11,80,61,333,42,81,60,051,28,82,59,176,14,79,54,106,15*63
$GLGSV,3,2,11,83,17,195,,71,12,315,38,73,09,311,25,88,09,029,21*65
$GLGSV,3,3,11,78,05,123,,72,05,000,23,70,03,270,*5F
$BDGSV,3,1,10,224,86,203,14,244,74,148,22,212,56,192,16,226,35,133,*67
$BDGSV,3,2,10,225,33,306,41,234,27,210,25,208,23,070,24,238,20,056,*6B
$BDGSV,3,3,10,211,06,212,19,210,03,074,*67
$GAGSV,3,1,10,124,72,321,31,131,48,091,26,112,43,144,,133,41,064,25*6D
$GAGSV,3,2,10,110,27,168,,105,21,254,,125,21,289,40,103,17,307,37*60
$GAGSV,3,3,10,126,07,029,11,111,06,185,*6B
$GPGSA,A,3,25,26,28,29,31,,,,,,,,2.7,2.1,1.8*3D
$GPGSA,A,3,,,,,,,,,,,,,2.7,2.1,1.8,8*29
$GPGSA,A,3,,,,,,,,,,,,,2.7,2.1,1.8,9*28
$QZGSA,A,3,,,,,,,,,,,,,2.7,2.1,1.8*21
$QZGSA,A,3,,,,,,,,,,,,,2.7,2.1,1.8,8*35
$QZGSA,A,3,,,,,,,,,,,,,2.7,2.1,1.8,9*34
$BDGSA,A,3,225,,,,,,,,,,,,2.7,2.1,1.8*19
$BDGSA,A,3,,,,,,,,,,,,,2.7,2.1,1.8,5*35
$BDGSA,A,3,,,,,,,,,,,,,2.7,2.1,1.8,3*33
$GAGSA,A,3,103,124,125,133,,,,,,,,,2.7,2.1,1.8*2E
$GAGSA,A,3,,,,,,,,,,,,,2.7,2.1,1.8,1*31
$GNGSA,A,3,25,26,28,29,31,,,,,,,,2.7,2.1,1.8*23
$GNGSA,A,3,71,73,80,81,88,,,,,,,,2.7,2.1,1.8*20
$PGLOR,1,FIX,1.0,1.0*20
$GPRMC,140204.00,A,4530.200620,N,00913.477750,E,000.0,,020224,,,A*7C
$PGLOR,SPL,39240302150204.9,POS,20240202140204.000,45.503344,9.224629,11,11,0,190,11,1.100000*66
$GPGGA,140205.00,4530.200353,N,00913.477737,E,1,13,1.1,141.0,M,48.1,M,,*6C
$PGLOR,1,UNC,140205.00,0.037,11.2,10.5,20.00,115.43,14.9,7.7,91.2*1B
$PGLOR,2,SAT,7,1,B24,,20,G29,19,23,B44,19,33,E24,27,2F,G25,14,2F,R16,38,2F*54
$PGLOR,2,SAT,7,2,R17,24,2F,R18,10,20,G28,37,2F,B12,,20,R15,12,20,E31,22,21*24
$PGLOR,2,SAT,7,3,E12,,20,E33,22,21,B26,11,20,G31,37,27,B25,37,2F,G12,09,20*4E
$PGLOR,2,SAT,7,4,B34,21,23,E10,,20,G11,13,20,B08,19,23,E05,08,20,E25,36,2F*4D
$PGLOR,2,SAT,7,5,B38,09,30,R19,07,20,E03,33,2F,G32,21,23,G18,,20,R07,34,2F*30
$PGLOR,2,SAT,7,6,G26,32,2F,G20,09,20,R09,18,27,R24,17,2F,E26,08,20,B11,11,20*31
$PGLOR,2,SAT,7,7,E11,,20,R14,,20,R08,20,23,R06,,20,B10,,20*42
$PGLOR,2,SVC,GPS,0,3,1,10,025,SKUS,SKPR,028,SKUS,SKUS,029,SKUS,SKUS,031,SKUS,SKUS*69
$PGLOR,2,SVC,GPS,0,3,2,10,011,CLIN,CLIN,012,CLIN,CLIN,018,SKPR,SKPR,032,CLIN,CLIN*61
$PGLOR,2,SVC,GPS,0,3,3,10,020,SKUS,SKUS,026,CLIN,CLIN*6D
$PGLOR,2,SVC,GLO,0,3,1,11,056,SKUS,SKUS,058,SKUS,SKPR,059,CLIN,CLIN,063,CLIN,CLIN*6B
$PGLOR,2,SVC,GLO,0,3,2,11,057,CLIN,CLIN,061,SKUS,SKUS,062,SKUS,SKUS,064,SKUS,SKUS*68
$PGLOR,2,SVC,GLO,0,3,3,11,052,CLIN,CLIN,055,RLPR,DOPE,065,CLIN,CLIN*70
$PGLOR,2,SVC,BDS,0,3,1,10,087,CLIN,CLIN,099,SKPR,SKPR,101,CLIN,CLIN,119,CLIN,CLIN*7E
$PGLOR,2,SVC,BDS,0,3,2,10,083,SKUS,SKPR,100,SKPR,SKPR,109,SKPR,SKPR,113,CLIN,CLIN*7E
$PGLOR,2,SVC,BDS,0,3,3,10,085,CLIN,CLIN,086,CLIN,CLIN*79
$PGLOR,2,SVC,GAL,0,3,1,10,150,SKUS,SKUS,162,RLPR,DOPE,169,CLIN,CLIN,171,SKUS,SKUS*6D
$PGLOR,2,SVC,GAL,0,3,2,10,141,CLIN,CLIN,143,CLIN,CLIN,148,SKUS,SKUS,163,SKUS,SKUS*6F
$PGLOR,2,SVC,GAL,0,3,3,10,149,CLIN,CLIN,164,CLIN,CLIN*6A
$PGLOR,2,SIO,TxERR,0,RxERR,0,TxCNT,928,RxCNT,10956,MLFRMPKT,0,DTMS,997,DTIN,29,52,DTOUT,16,947,HATMD,78*14
$PGLOR,2,HLA,140205.00,L,,Al,,A,,H,,,M,1,Ac,0,Gr,0,S,,,Sx,,,T,0,Tr,,Mn,,Ap,,Ta,0,,,Aa,1,Ga,1,*19
$PGLOR,3,CTX,140205.00,E,2,0,,,V,1,0,S,,,*79
$PGLOR,1,LSQ,140205.00,,,,,,,,,,,,,,,,00,,*39
$PGLOR,0,PPS,020224,140205.000,010181,215848.989,000.100,1,0,1,*11
$PGLOR,3,AGC,G,31.4,R,47.9,B,47.4,E5A,,AL1,21.6,AL5,,LTE,,PM1,,PM5,*05
$PSSGR,GSA,A,3,25,26,28,31,,,,,,,,,2.9,2.4,1.8,1,1*43
$PSSGR,GSA,A,3,,,,,,,,,,,,,2.9,2.4,1.8,1,8*41
$PSSGR,GSA,A,3,,,,,,,,,,,,,2.9,2.4,1.8,1,9*40
$PSSGR,GSA,A,3,71,73,80,81,88,,,,,,,,2.9,2.4,1.8,2,1*48
$PSSGR,GSA,A,3,,,,,,,,,,,,,2.9,2.4,1.8,5,1*4C
$PSSGR,GSA,A,3,,,,,,,,,,,,,2.9,2.4,1.8,5,8*45
$PSSGR,GSA,A,3,,,,,,,,,,,,,2.9,2.4,1.8,5,9*44
